$GNRMC,,V,,,,,,,,,,N*4D
$GNVTG,,,,,,,,,N*2E
$GNGGA,,,,,,0,00,99.99,,,,,,*56
$GNGSA,A,1,,,,,,,,,,,,,99.99,99.99,99.99*2E
$GNGSA,A,1,,,,,,,,,,,,,99.99,99.99,99.99*2E
$GPGSV,1,1,03,27,,,40,48,,,34,51,,,42*72
$GLGSV,1,1,00*65
$GNGLL,,,,,,V,N*7A
$GNRMC,,V,,,,,,,,,,N*4D
$GNVTG,,,,,,,,,N*2E
$GNGGA,,,,,,0,00,99.99,,,,,,*56
$GNGSA,A,1,,,,,,,,,,,,,99.99,99.99,99.99*2E
$GNGSA,A,1,,,,,,,,,,,,,99.99,99.99,99.99*2E
$GPGSV,1,1,03,27,,,40,48,,,36,51,,,42*70
$GLGSV,1,1,00*65
$GNGLL,,,,,,V,N*7A
$GNRMC,,V,,,,,,,,,,N*4D
$GNVTG,,,,,,,,,N*2E
$GNGGA,,,,,,0,00,99.99,,,,,,*56
$GNGSA,A,1,,,,,,,,,,,,,99.99,99.99,99.99*2E
$GNGSA,A,1,,,,,,,,,,,,,99.99,99.99,99.99*2E
$GPGSV,1,1,03,27,,,40,48,,,37,51,,,41*72
$GLGSV,1,1,00*65
$GNGLL,,,,,,V,N*7A
$GNRMC,,V,,,,,,,,,,N*4D
$GNVTG,,,,,,,,,N*2E
$GNGGA,,,,,,0,00,99.99,,,,,,*56
$GNGSA,A,1,,,,,,,,,,,,,99.99,99.99,99.99*2E
$GNGSA,A,1,,,,,,,,,,,,,99.99,99.99,99.99*2E
$GPGSV,1,1,03,27,,,40,48,,,37,51,,,41*72
$GLGSV,1,1,00*65
$GNGLL,,,,,,V,N*7A
$GNRMC,013512.28,V,,,,,,,,,,N*6D
$GNVTG,,,,,,,,,N*2E
$GNGGA,013512.28,,,,,0,00,99.99,,,,,,*76
$GNGSA,A,1,,,,,,,,,,,,,99.99,99.99,99.99*2E
$GNGSA,A,1,,,,,,,,,,,,,99.99,99.99,99.99*2E
$GPGSV,2,1,05,24,,,31,27,,,39,32,,,34,48,,,37*7A
$GPGSV,2,2,05,51,,,41*7D
$GLGSV,1,1,00*65
$GNGLL,,,,,013512.28,V,N*5A
$GNRMC,013513.00,V,,,,,,,,,,N*66
$GNVTG,,,,,,,,,N*2E
$GNGGA,013513.00,,,,,0,00,99.99,,,,,,*7D
$GNGSA,A,1,,,,,,,,,,,,,99.99,99.99,99.99*2E
$GNGSA,A,1,,,,,,,,,,,,,99.99,99.99,99.99*2E
$GPGSV,2,1,05,24,,,32,27,,,40,32,,,33,48,,,37*70
$GPGSV,2,2,05,51,,,41*7D
$GLGSV,1,1,00*65
$GNGLL,,,,,013513.00,V,N*51
$GNRMC,013514.00,V,,,,,,,,,,N*61
$GNVTG,,,,,,,,,N*2E
$GNGGA,013514.00,,,,,0,00,99.99,,,,,,*7A
$GNGSA,A,1,,,,,,,,,,,,,99.99,99.99,99.99*2E
$GNGSA,A,1,,,,,,,,,,,,,99.99,99.99,99.99*2E
$GPGSV,2,1,05,24,,,32,27,,,40,32,,,34,48,,,38*78
$GPGSV,2,2,05,51,,,41*7D
$GLGSV,1,1,00*65
$GNGLL,,,,,013514.00,V,N*56
$GNRMC,013515.00,V,,,,,,,060721,,,N*62
$GNVTG,,,,,,,,,N*2E
$GNGGA,013515.00,,,,,0,00,99.99,,,,,,*7B
$GNGSA,A,1,,,,,,,,,,,,,99.99,99.99,99.99*2E
$GNGSA,A,1,,,,,,,,,,,,,99.99,99.99,99.99*2E
$GPGSV,2,1,05,24,,,32,27,,,40,32,,,35,48,,,38*79
$GPGSV,2,2,05,51,,,40*7C
$GLGSV,1,1,00*65
$GNGLL,,,,,013515.00,V,N*57
$GNRMC,013516.00,V,,,,,,,060721,,,N*61
$GNVTG,,,,,,,,,N*2E
$GNGGA,013516.00,,,,,0,00,99.99,,,,,,*78
$GNGSA,A,1,,,,,,,,,,,,,99.99,99.99,99.99*2E
$GNGSA,A,1,,,,,,,,,,,,,99.99,99.99,99.99*2E
$GPGSV,2,1,05,24,,,31,27,,,40,32,,,37,48,,,38*78
$GPGSV,2,2,05,51,,,40*7C
$GLGSV,1,1,00*65
$GNGLL,,,,,013516.00,V,N*54
$GNRMC,013517.00,V,,,,,,,060721,,,N*60
$GNVTG,,,,,,,,,N*2E
$GNGGA,013517.00,,,,,0,00,99.99,,,,,,*79
$GNGSA,A,1,,,,,,,,,,,,,99.99,99.99,99.99*2E
$GNGSA,A,1,,,,,,,,,,,,,99.99,99.99,99.99*2E
$GPGSV,2,1,05,24,,,31,27,,,38,32,,,36,48,,,36*78
$GPGSV,2,2,05,51,,,38*73
$GLGSV,1,1,00*65
$GNGLL,,,,,013517.00,V,N*55
$GNRMC,013518.00,V,,,,,,,060721,,,N*6F
$GNVTG,,,,,,,,,N*2E
$GNGGA,013518.00,,,,,0,00,99.99,,,,,,*76
$GNGSA,A,1,,,,,,,,,,,,,99.99,99.99,99.99*2E
$GNGSA,A,1,,,,,,,,,,,,,99.99,99.99,99.99*2E
$GPGSV,2,1,05,24,,,31,27,,,38,32,,,37,48,,,37*78
$GPGSV,2,2,05,51,,,39*72
$GLGSV,1,1,00*65
$GNGLL,,,,,013518.00,V,N*5A
$GNRMC,013519.00,V,,,,,,,060721,,,N*6E
$GNVTG,,,,,,,,,N*2E
$GNGGA,013519.00,,,,,0,00,99.99,,,,,,*77
$GNGSA,A,1,,,,,,,,,,,,,99.99,99.99,99.99*2E
$GNGSA,A,1,,,,,,,,,,,,,99.99,99.99,99.99*2E
$GPGSV,2,1,05,24,,,32,27,,,38,32,,,37,48,,,37*7B
$GPGSV,2,2,05,51,,,39*72
$GLGSV,1,1,00*65
$GNGLL,,,,,013519.00,V,N*5B
$GNRMC,013520.00,V,,,,,,,060721,,,N*64
$GNVTG,,,,,,,,,N*2E
$GNGGA,013520.00,,,,,0,00,99.99,,,,,,*7D
$GNGSA,A,1,,,,,,,,,,,,,99.99,99.99,99.99*2E
$GNGSA,A,1,,,,,,,,,,,,,99.99,99.99,99.99*2E
$GPGSV,2,1,05,24,,,31,27,,,39,32,,,36,48,,,37*78
$GPGSV,2,2,05,51,,,40*7C
$GLGSV,1,1,00*65
$GNGLL,,,,,013520.00,V,N*51
$GNRMC,013521.00,V,,,,,,,060721,,,N*65
$GNVTG,,,,,,,,,N*2E
$GNGGA,013521.00,,,,,0,00,99.99,,,,,,*7C
$GNGSA,A,1,,,,,,,,,,,,,99.99,99.99,99.99*2E
$GNGSA,A,1,,,,,,,,,,,,,99.99,99.99,99.99*2E
$GPGSV,2,1,06,08,,,27,24,,,30,27,,,40,32,,,37*70
$GPGSV,2,2,06,48,,,36,51,,,38*79
$GLGSV,1,1,00*65
$GNGLL,,,,,013521.00,V,N*50
$GNRMC,013522.00,V,,,,,,,060721,,,N*66
$GNVTG,,,,,,,,,N*2E
$GNGGA,013522.00,,,,,0,00,99.99,,,,,,*7F
$GNGSA,A,1,,,,,,,,,,,,,99.99,99.99,99.99*2E
$GNGSA,A,1,,,,,,,,,,,,,99.99,99.99,99.99*2E
$GPGSV,2,1,06,08,,,26,24,,,30,27,,,40,32,,,37*71
$GPGSV,2,2,06,48,,,37,51,,,40*77
$GLGSV,1,1,00*65
$GNGLL,,,,,013522.00,V,N*53
$GNRMC,013523.00,V,,,,,,,060721,,,N*67
$GNVTG,,,,,,,,,N*2E
$GNGGA,013523.00,,,,,0,00,99.99,,,,,,*7E
$GNGSA,A,1,,,,,,,,,,,,,99.99,99.99,99.99*2E
$GNGSA,A,1,,,,,,,,,,,,,99.99,99.99,99.99*2E
$GPGSV,2,1,06,08,,,24,24,,,30,27,,,40,32,,,37*73
$GPGSV,2,2,06,48,,,37,51,,,40*77
$GLGSV,1,1,00*65
$GNGLL,,,,,013523.00,V,N*52
$GNRMC,013524.00,V,,,,,,,060721,,,N*60
$GNVTG,,,,,,,,,N*2E
$GNGGA,013524.00,,,,,0,00,99.99,,,,,,*79
$GNGSA,A,1,,,,,,,,,,,,,99.99,99.99,99.99*2E
$GNGSA,A,1,,,,,,,,,,,,,99.99,99.99,99.99*2E
$GPGSV,2,1,07,08,,,24,10,,,33,24,,,30,27,,,40*76
$GPGSV,2,2,07,32,,,37,48,,,38,51,,,40*7C
$GLGSV,1,1,00*65
$GNGLL,,,,,013524.00,V,N*55
$GNRMC,013525.00,V,,,,,,,060721,,,N*61
$GNVTG,,,,,,,,,N*2E
$GNGGA,013525.00,,,,,0,00,99.99,,,,,,*78
$GNGSA,A,1,,,,,,,,,,,,,99.99,99.99,99.99*2E
$GNGSA,A,1,,,,,,,,,,,,,99.99,99.99,99.99*2E
$GPGSV,2,1,07,08,,,24,10,,,33,24,,,29,27,,,40*7E
$GPGSV,2,2,07,32,,,37,48,,,37,51,,,40*73
$GLGSV,1,1,00*65
$GNGLL,,,,,013525.00,V,N*54
$GNRMC,013526.00,V,,,,,,,060721,,,N*62
$GNVTG,,,,,,,,,N*2E
$GNGGA,013526.00,,,,,0,00,99.99,,,,,,*7B
$GNGSA,A,1,,,,,,,,,,,,,99.99,99.99,99.99*2E
$GNGSA,A,1,,,,,,,,,,,,,99.99,99.99,99.99*2E
$GPGSV,2,1,07,08,,,25,10,,,34,24,,,29,27,,,41*79
$GPGSV,2,2,07,32,,,38,48,,,38,51,,,41*72
$GLGSV,1,1,00*65
$GNGLL,,,,,013526.00,V,N*57
$GNRMC,013527.00,V,,,,,,,060721,,,N*63
$GNVTG,,,,,,,,,N*2E
$GNGGA,013527.00,,,,,0,00,99.99,,,,,,*7A
$GNGSA,A,1,,,,,,,,,,,,,99.99,99.99,99.99*2E
$GNGSA,A,1,,,,,,,,,,,,,99.99,99.99,99.99*2E
$GPGSV,2,1,07,08,,,24,10,,,35,24,,,29,27,,,42*7A
$GPGSV,2,2,07,32,,,40,48,,,40,51,,,42*71
$GLGSV,1,1,00*65
$GNGLL,,,,,013527.00,V,N*56
$GNRMC,013528.00,V,,,,,,,060721,,,N*6C
$GNVTG,,,,,,,,,N*2E
$GNGGA,013528.00,,,,,0,00,99.99,,,,,,*75
$GNGSA,A,1,,,,,,,,,,,,,99.99,99.99,99.99*2E
$GNGSA,A,1,,,,,,,,,,,,,99.99,99.99,99.99*2E
$GPGSV,2,1,07,08,,,23,10,,,35,24,,,28,27,,,41*7F
$GPGSV,2,2,07,32,,,39,48,,,39,51,,,41*72
$GLGSV,1,1,00*65
$GNGLL,,,,,013528.00,V,N*59
$GNRMC,013529.00,V,,,,,,,060721,,,N*6D
$GNVTG,,,,,,,,,N*2E
$GNGGA,013529.00,,,,,0,00,99.99,,,,,,*74
$GNGSA,A,1,,,,,,,,,,,,,99.99,99.99,99.99*2E
$GNGSA,A,1,,,,,,,,,,,,,99.99,99.99,99.99*2E
$GPGSV,2,1,07,08,,,20,10,,,33,24,,,27,27,,,42*76
$GPGSV,2,2,07,32,,,36,48,,,38,51,,,40*7D
$GLGSV,1,1,00*65
$GNGLL,,,,,013529.00,V,N*58
$GNRMC,013530.00,V,,,,,,,060721,,,N*65
$GNVTG,,,,,,,,,N*2E
$GNGGA,013530.00,,,,,0,00,99.99,,,,,,*7C
$GNGSA,A,1,,,,,,,,,,,,,99.99,99.99,99.99*2E
$GNGSA,A,1,,,,,,,,,,,,,99.99,99.99,99.99*2E
$GPGSV,2,1,08,08,,,18,10,,,32,24,,,27,27,,,42*73
$GPGSV,2,2,08,32,,,37,46,,,36,48,,,39,51,,,40*75
$GLGSV,1,1,00*65
$GNGLL,,,,,013530.00,V,N*50
$GNRMC,013531.01,V,,,,,,,060721,,,N*65
$GNVTG,,,,,,,,,N*2E
$GNGGA,013531.01,,,,,0,03,13.89,,,,,,*7C
$GNGSA,A,1,27,24,32,,,,,,,,,,13.92,13.89,1.00*17
$GNGSA,A,1,,,,,,,,,,,,,13.92,13.89,1.00*15
$GPGSV,2,1,08,08,,,16,10,,,32,24,25,053,27,27,25,248,42*75
$GPGSV,2,2,08,32,70,244,36,46,44,169,38,48,36,220,38,51,44,184,41*79
$GLGSV,1,1,00*65
$GNGLL,,,,,013531.01,V,N*50
$GNRMC,013532.00,V,,,,,,,060721,,,N*67
$GNVTG,,,,,,,,,N*2E
$GNGGA,013532.00,,,,,0,03,13.90,,,,,,*76
$GNGSA,A,1,27,24,32,,,,,,,,,,13.94,13.90,1.00*19
$GNGSA,A,1,,,,,,,,,,,,,13.94,13.90,1.00*1B
$GPGSV,2,1,08,08,,,17,10,,,31,24,25,053,27,27,25,248,42*77
$GPGSV,2,2,08,32,70,244,36,46,44,169,39,48,36,220,38,51,44,184,41*78
$GLGSV,1,1,00*65
$GNGLL,,,,,013532.00,V,N*52
$GNRMC,013533.00,V,,,,,,,060721,,,N*66
$GNVTG,,,,,,,,,N*2E
$GNGGA,013533.00,,,,,0,03,13.92,,,,,,*75
$GNGSA,A,1,27,24,32,,,,,,,,,,13.96,13.92,1.00*19
$GNGSA,A,1,,,,,,,,,,,,,13.96,13.92,1.00*1B
$GPGSV,2,1,08,08,,,16,10,,,32,24,25,053,27,27,25,248,42*75
$GPGSV,2,2,08,32,70,244,38,46,44,169,39,48,36,220,38,51,44,184,41*76
$GLGSV,1,1,00*65
$GNGLL,,,,,013533.00,V,N*53
$GNRMC,013534.00,V,,,,,,,060721,,,N*61
$GNVTG,,,,,,,,,N*2E
$GNGGA,013534.00,,,,,0,03,13.94,,,,,,*74
$GNGSA,A,1,27,24,32,,,,,,,,,,13.97,13.94,1.00*1E
$GNGSA,A,1,,,,,,,,,,,,,13.97,13.94,1.00*1C
$GPGSV,2,1,08,08,,,14,10,,,35,24,25,053,26,27,25,248,42*71
$GPGSV,2,2,08,32,70,244,38,46,44,169,38,48,36,220,39,51,44,184,41*76
$GLGSV,1,1,00*65
$GNGLL,,,,,013534.00,V,N*54
$GNRMC,013535.00,V,,,,,,,060721,,,N*60
$GNVTG,,,,,,,,,N*2E
$GNGGA,013535.00,,,,,0,03,13.95,,,,,,*74
$GNGSA,A,1,27,24,32,,,,,,,,,,13.99,13.95,1.00*11
$GNGSA,A,1,,,,,,,,,,,,,13.99,13.95,1.00*13
$GPGSV,2,1,08,08,,,15,10,,,34,24,25,053,26,27,25,248,42*71
$GPGSV,2,2,08,32,70,244,38,46,44,169,38,48,36,220,38,51,44,184,41*77
$GLGSV,1,1,00*65
$GNGLL,,,,,013535.00,V,N*55
$GNRMC,013536.00,V,,,,,,,060721,,,N*63
$GNVTG,,,,,,,,,N*2E
$GNGGA,013536.00,,,,,0,03,13.97,,,,,,*75
$GNGSA,A,1,27,24,32,,,,,,,,,,14.01,13.97,1.00*15
$GNGSA,A,1,,,,,,,,,,,,,14.01,13.97,1.00*17
$GPGSV,2,1,08,08,,,16,10,,,34,24,25,053,26,27,25,248,42*72
$GPGSV,2,2,08,32,70,244,35,46,44,169,38,48,36,220,38,51,44,184,40*7B
$GLGSV,1,1,00*65
$GNGLL,,,,,013536.00,V,N*56
$GNRMC,013537.00,V,,,,,,,060721,,,N*62
$GNVTG,,,,,,,,,N*2E
$GNGGA,013537.00,,,,,0,03,13.99,,,,,,*7A
$GNGSA,A,1,27,24,32,,,,,,,,,,14.02,13.99,1.00*18
$GNGSA,A,1,,,,,,,,,,,,,14.02,13.99,1.00*1A
$GPGSV,2,1,08,08,,,14,10,,,34,24,25,053,26,27,25,248,42*70
$GPGSV,2,2,08,32,70,244,35,46,44,169,37,48,36,220,38,51,44,184,40*74
$GLGSV,1,1,00*65
$GNGLL,,,,,013537.00,V,N*57
$GNRMC,013538.00,V,,,,,,,060721,,,N*6D
$GNVTG,,,,,,,,,N*2E
$GNGGA,013538.00,,,,,0,03,14.01,,,,,,*73
$GNGSA,A,1,27,24,32,,,,,,,,,,14.04,14.01,1.00*18
$GNGSA,A,1,,,,,,,,,,,,,14.04,14.01,1.00*1A
$GPGSV,2,1,08,08,,,12,10,,,35,24,25,053,26,27,25,248,43*76
$GPGSV,2,2,08,32,70,244,34,46,44,169,38,48,36,220,37,51,44,184,40*75
$GLGSV,1,1,00*65
$GNGLL,,,,,013538.00,V,N*58
$GNRMC,013539.00,V,,,,,,,060721,,,N*6C
$GNVTG,,,,,,,,,N*2E
$GNGGA,013539.00,,,,,0,03,14.02,,,,,,*71
$GNGSA,A,1,27,24,32,,,,,,,,,,14.06,14.02,1.00*19
$GNGSA,A,1,,,,,,,,,,,,,14.06,14.02,1.00*1B
$GPGSV,2,1,08,08,,,11,10,,,35,24,25,053,26,27,25,248,43*75
$GPGSV,2,2,08,32,70,244,34,46,44,169,38,48,36,220,37,51,44,184,41*74
$GLGSV,1,1,00*65
$GNGLL,,,,,013539.00,V,N*59
$GNRMC,013540.00,V,,,,,,,060721,,,N*62
$GNVTG,,,,,,,,,N*2E
$GNGGA,013540.00,,,,,0,03,14.04,,,,,,*79
$GNGSA,A,1,27,24,32,,,,,,,,,,14.07,14.04,1.00*1E
$GNGSA,A,1,,,,,,,,,,,,,14.07,14.04,1.00*1C
$GPGSV,2,1,08,08,,,18,10,,,35,24,25,053,27,27,25,248,43*7D
$GPGSV,2,2,08,32,70,244,34,46,44,169,39,48,36,220,37,51,44,184,42*76
$GLGSV,1,1,00*65
$GNGLL,,,,,013540.00,V,N*57
$GNRMC,013541.00,V,,,,,,,060721,,,N*63
$GNVTG,,,,,,,,,N*2E
$GNGGA,013541.00,,,,,0,03,14.06,,,,,,*7A
$GNGSA,A,1,27,24,32,,,,,,,,,,14.09,14.06,1.00*12
$GNGSA,A,1,,,,,,,,,,,,,14.09,14.06,1.00*10
$GPGSV,2,1,08,08,,,19,10,,,35,24,25,053,28,27,25,248,43*73
$GPGSV,2,2,08,32,70,244,34,46,44,169,39,48,36,220,37,51,44,184,42*76
$GLGSV,1,1,00*65
$GNGLL,,,,,013541.00,V,N*56
$GNRMC,013542.00,V,,,,,,,060721,,,N*60
$GNVTG,,,,,,,,,N*2E
$GNGGA,013542.00,,,,,0,03,14.07,,,,,,*78
$GNGSA,A,1,27,24,32,,,,,,,,,,14.11,14.07,1.00*1A
$GNGSA,A,1,,,,,,,,,,,,,14.11,14.07,1.00*18
$GPGSV,2,1,08,08,,,19,10,,,35,24,25,053,28,27,25,248,43*73
$GPGSV,2,2,08,32,70,244,34,46,44,169,39,48,36,220,37,51,44,184,42*76
$GLGSV,1,1,00*65
$GNGLL,,,,,013542.00,V,N*55
$GNRMC,013543.00,V,,,,,,,060721,,,N*61
$GNVTG,,,,,,,,,N*2E
$GNGGA,013543.00,,,,,0,03,14.09,,,,,,*77
$GNGSA,A,1,27,24,32,,,,,,,,,,14.12,14.09,1.00*17
$GNGSA,A,1,,,,,,,,,,,,,14.12,14.09,1.00*15
$GPGSV,2,1,08,08,,,17,10,,,35,24,25,053,28,27,25,248,42*7C
$GPGSV,2,2,08,32,70,244,33,46,44,169,38,48,36,220,37,51,44,184,40*72
$GLGSV,1,1,02,,,,30,,,,33*64
$GNGLL,,,,,013543.00,V,N*54
$GNRMC,013544.00,V,,,,,,,060721,,,N*66
$GNVTG,,,,,,,,,N*2E
$GNGGA,013544.00,,,,,0,03,14.11,,,,,,*79
$GNGSA,A,1,27,24,32,,,,,,,,,,14.14,14.11,1.00*18
$GNGSA,A,1,,,,,,,,,,,,,14.14,14.11,1.00*1A
$GPGSV,2,1,08,08,,,17,10,,,34,24,25,053,28,27,25,248,42*7D
$GPGSV,2,2,08,32,70,244,32,46,44,169,38,48,36,220,36,51,44,184,40*72
$GLGSV,1,1,02,,,,31,,,,34*62
$GNGLL,,,,,013544.00,V,N*53
$GNRMC,013545.00,V,,,,,,,060721,,,N*67
$GNVTG,,,,,,,,,N*2E
$GNGGA,013545.00,,,,,0,03,14.12,,,,,,*7B
$GNGSA,A,1,27,24,32,,,,,,,,,,14.16,14.12,1.00*19
$GNGSA,A,1,,,,,,,,,,,,,14.16,14.12,1.00*1B
$GPGSV,2,1,08,08,,,17,10,,,34,24,25,053,28,27,25,248,42*7D
$GPGSV,2,2,08,32,70,244,32,46,44,169,38,48,36,220,36,51,44,184,40*72
$GLGSV,1,1,04,,,,31,,,,34,,,,29,,,,32*6E
$GNGLL,,,,,013545.00,V,N*52
$GNRMC,013546.00,V,,,,,,,060721,,,N*64
$GNVTG,,,,,,,,,N*2E
$GNGGA,013546.00,,,,,0,03,14.14,,,,,,*7E
$GNGSA,A,1,27,24,32,,,,,,,,,,14.18,14.14,1.00*11
$GNGSA,A,1,,,,,,,,,,,,,14.18,14.14,1.00*13
$GPGSV,3,1,09,08,,,18,10,,,33,21,,,30,24,25,053,28*4F
$GPGSV,3,2,09,27,25,248,42,32,70,244,32,46,44,169,38,48,36,220,36*75
$GPGSV,3,3,09,51,44,184,40*4D
$GLGSV,1,1,04,,,,30,,,,34,,,,24,,,,33*63
$GNGLL,,,,,013546.00,V,N*51
$GNRMC,013547.00,V,,,,,,,060721,,,N*65
$GNVTG,,,,,,,,,N*2E
$GNGGA,013547.00,,,,,0,03,14.16,,,,,,*7D
$GNGSA,A,1,27,24,32,,,,,,,,,,14.19,14.16,1.00*12
$GNGSA,A,1,,,,,,,,,,,,,14.19,14.16,1.00*10
$GPGSV,3,1,09,08,,,17,10,,,33,21,,,35,24,25,053,28*45
$GPGSV,3,2,09,27,25,248,42,32,70,244,32,46,44,169,38,48,36,220,36*75
$GPGSV,3,3,09,51,44,184,40*4D
$GLGSV,1,1,04,,,,30,,,,34,,,,31,,,,32*66
$GNGLL,,,,,013547.00,V,N*50
$GNRMC,013548.00,V,,,,,,,060721,,,N*6A
$GNVTG,,,,,,,,,N*2E
$GNGGA,013548.00,,,,,0,03,14.17,,,,,,*73
$GNGSA,A,1,27,24,32,,,,,,,,,,14.21,14.17,1.00*18
$GNGSA,A,1,,,,,,,,,,,,,14.21,14.17,1.00*1A
$GPGSV,3,1,09,08,,,17,10,,,33,21,,,34,24,25,053,28*44
$GPGSV,3,2,09,27,25,248,42,32,70,244,31,46,44,169,38,48,36,220,36*76
$GPGSV,3,3,09,51,44,184,41*4C
$GLGSV,1,1,04,,,,30,,,,34,,,,30,,,,31*64
$GNGLL,,,,,013548.00,V,N*5F
$GNRMC,013549.00,V,,,,,,,060721,,,N*6B
$GNVTG,,,,,,,,,N*2E
$GNGGA,013549.00,,,,,0,03,14.19,,,,,,*7C
$GNGSA,A,1,27,24,32,,,,,,,,,,14.23,14.19,1.00*14
$GNGSA,A,1,,,,,,,,,,,,,14.23,14.19,1.00*16
$GPGSV,3,1,09,08,,,18,10,,,34,21,,,34,24,25,053,28*4C
$GPGSV,3,2,09,27,25,248,41,32,70,244,30,46,44,169,38,48,36,220,36*74
$GPGSV,3,3,09,51,44,184,40*4D
$GLGSV,1,1,04,,,,28,,,,34,,,,30,,,,33*6F
$GNGLL,,,,,013549.00,V,N*5E
$GNRMC,013550.00,V,,,,,,,060721,,,N*63
$GNVTG,,,,,,,,,N*2E
$GNGGA,013550.00,,,,,0,03,14.21,,,,,,*7F
$GNGSA,A,1,27,24,32,,,,,,,,,,14.24,14.21,1.00*18
$GNGSA,A,1,,,,,,,,,,,,,14.24,14.21,1.00*1A
$GPGSV,3,1,09,08,,,19,10,,,34,21,,,34,24,25,053,28*4D
$GPGSV,3,2,09,27,25,248,41,32,70,244,31,46,44,169,38,48,36,220,36*75
$GPGSV,3,3,09,51,44,184,41*4C
$GLGSV,1,1,04,,,,28,,,,34,,,,33,,,,33*6C
$GNGLL,,,,,013550.00,V,N*56
$GNRMC,013551.00,V,,,,,,,060721,,,N*62
$GNVTG,,,,,,,,,N*2E
$GNGGA,013551.00,,,,,0,03,14.23,,,,,,*7C
$GNGSA,A,1,27,24,32,,,,,,,,,,14.26,14.23,1.00*18
$GNGSA,A,1,,,,,,,,,,,,,14.26,14.23,1.00*1A
$GPGSV,3,1,09,08,,,22,10,,,34,21,,,38,24,25,053,30*40
$GPGSV,3,2,09,27,25,248,43,32,70,244,33,46,44,169,38,48,36,220,38*7B
$GPGSV,3,3,09,51,44,184,42*4F
$GLGSV,1,1,04,,,,26,,,,34,,,,33,,,,34*65
$GNGLL,,,,,013551.00,V,N*57
$GNRMC,013552.00,V,,,,,,,060721,,,N*61
$GNVTG,,,,,,,,,N*2E
$GNGGA,013552.00,,,,,0,03,14.24,,,,,,*78
$GNGSA,A,1,27,24,32,,,,,,,,,,14.28,14.24,1.00*11
$GNGSA,A,1,,,,,,,,,,,,,14.28,14.24,1.00*13
$GPGSV,3,1,09,08,,,24,10,,,35,21,,,36,24,25,053,29*41
$GPGSV,3,2,09,27,25,248,43,32,70,244,32,46,44,169,38,48,36,220,38*7A
$GPGSV,3,3,09,51,44,184,41*4C
$GLGSV,1,1,04,,,,28,,,,34,,,,32,,,,34*6A
$GNGLL,,,,,013552.00,V,N*54
$GNRMC,013553.00,V,,,,,,,060721,,,N*60
$GNVTG,,,,,,,,,N*2E
$GNGGA,013553.00,,,,,0,03,14.26,,,,,,*7B
$GNGSA,A,1,27,24,32,,,,,,,,,,14.30,14.26,1.00*1A
$GNGSA,A,1,,,,,,,,,,,,,14.30,14.26,1.00*18
$GPGSV,3,1,09,08,,,24,10,,,34,21,,,35,24,25,053,29*43
$GPGSV,3,2,09,27,25,248,42,32,70,244,33,46,44,169,37,48,36,220,39*74
$GPGSV,3,3,09,51,44,184,41*4C
$GLGSV,1,1,04,,,,28,,,,34,,,,32,,,,33*6D
$GNGLL,,,,,013553.00,V,N*55
$GNRMC,013554.00,V,,,,,,,060721,,,N*67
$GNVTG,,,,,,,,,N*2E
$GNGGA,013554.00,,,,,0,03,14.28,,,,,,*72
$GNGSA,A,1,27,24,32,,,,,,,,,,14.31,14.28,1.00*15
$GNGSA,A,1,,,,,,,,,,,,,14.31,14.28,1.00*17
$GPGSV,3,1,09,08,,,23,10,,,33,21,,,34,24,25,053,29*42
$GPGSV,3,2,09,27,25,248,42,32,70,244,33,46,44,169,38,48,36,220,39*7B
$GPGSV,3,3,09,51,44,184,41*4C
$GLGSV,1,1,04,,,,27,,,,34,,,,32,,,,34*65
$GNGLL,,,,,013554.00,V,N*52
$GNRMC,013555.00,V,,,,,,,060721,,,N*66
$GNVTG,,,,,,,,,N*2E
$GNGGA,013555.00,,,,,0,03,14.30,,,,,,*7A
$GNGSA,A,1,27,24,32,,,,,,,,,,14.33,14.30,1.00*1E
$GNGSA,A,1,,,,,,,,,,,,,14.33,14.30,1.00*1C
$GPGSV,3,1,09,08,,,23,10,,,34,21,,,34,24,25,052,30*4C
$GPGSV,3,2,09,27,25,248,42,32,70,244,33,46,44,169,38,48,36,220,39*7B
$GPGSV,3,3,09,51,44,184,41*4C
$GLGSV,2,1,05,,,,27,,,,34,,,,33,,,,34*66
$GLGSV,2,2,05,,,,27*65
$GNGLL,,,,,013555.00,V,N*53
$GNRMC,013556.00,V,,,,,,,060721,,,N*65
$GNVTG,,,,,,,,,N*2E
$GNGGA,013556.00,,,,,0,04,9.67,,,,,,*40
$GNGSA,A,1,27,24,32,10,,,,,,,,,9.87,9.67,1.99*12
$GNGSA,A,1,,,,,,,,,,,,,9.87,9.67,1.99*11
$GPGSV,3,1,09,08,,,23,10,69,030,34,21,,,33,24,25,052,30*77
$GPGSV,3,2,09,27,25,248,42,32,70,244,33,46,44,169,37,48,36,220,39*74
$GPGSV,3,3,09,51,44,184,39*43
$GLGSV,2,1,05,,,,28,,,,34,,,,32,,,,34*68
$GLGSV,2,2,05,,,,28*6A
$GNGLL,,,,,013556.00,V,N*50
$GNRMC,013557.00,A,3939.49859,N,10459.72513,W,0.150,,060721,,,A*7D
$GNVTG,,T,,M,0.150,N,0.277,K,A*3B
$GNGGA,013557.00,3939.49859,N,10459.72513,W,1,04,9.68,1626.4,M,-21.7,M,,*4A
$GNGSA,A,3,27,24,32,10,,,,,,,,,9.89,9.68,1.99*11
$GNGSA,A,3,,,,,,,,,,,,,9.89,9.68,1.99*12
$GPGSV,3,1,09,08,,,21,10,69,030,37,21,,,27,24,25,052,32*71
$GPGSV,3,2,09,27,25,248,43,32,70,244,38,46,44,169,40,48,36,220,39*7E
$GPGSV,3,3,09,51,44,184,41*4C
$GLGSV,2,1,05,,,,25,,,,34,,,,32,,,,36*67
$GLGSV,2,2,05,,,,25*67
$GNGLL,3939.49859,N,10459.72513,W,013557.00,A,A*62
$GNRMC,013558.00,A,3939.50052,N,10459.72690,W,0.115,,060721,,,A*70
$GNVTG,,T,,M,0.115,N,0.213,K,A*38
$GNGGA,013558.00,3939.50052,N,10459.72690,W,1,04,9.70,1626.8,M,-21.7,M,,*43
$GNGSA,A,3,27,24,32,10,,,,,,,,,9.90,9.70,1.99*10
$GNGSA,A,3,,,,,,,,,,,,,9.90,9.70,1.99*13
$GPGSV,3,1,09,08,,,18,10,69,030,37,21,,,27,24,25,052,32*7B
$GPGSV,3,2,09,27,25,248,43,32,70,244,38,46,44,169,40,48,36,220,39*7E
$GPGSV,3,3,09,51,44,184,41*4C
$GLGSV,2,1,05,,,,25,,,,33,,,,32,,,,36*60
$GLGSV,2,2,05,,,,25*67
$GNGLL,3939.50052,N,10459.72690,W,013558.00,A,A*6E
$GNRMC,013559.00,A,3939.50264,N,10459.72822,W,0.183,,060721,,,A*7E
$GNVTG,,T,,M,0.183,N,0.338,K,A*3F
$GNGGA,013559.00,3939.50264,N,10459.72822,W,1,04,9.72,1626.0,M,-21.7,M,,*48
$GNGSA,A,3,27,24,32,10,,,,,,,,,9.92,9.72,1.99*10
$GNGSA,A,3,,,,,,,,,,,,,9.92,9.72,1.99*13
$GPGSV,3,1,09,08,,,16,10,69,030,37,21,,,35,24,25,052,24*71
$GPGSV,3,2,09,27,25,248,44,32,70,244,40,46,44,169,32,48,36,220,37*7D
$GPGSV,3,3,09,51,44,184,42*4F
$GLGSV,2,1,05,,,,23,,,,33,,,,32,,,,36*66
$GLGSV,2,2,05,,,,23*61
$GNGLL,3939.50264,N,10459.72822,W,013559.00,A,A*6F
$GNRMC,013600.00,A,3939.50337,N,10459.72843,W,1.200,,060721,,,A*78
$GNVTG,,T,,M,1.200,N,2.223,K,A*3F
$GNGGA,013600.00,3939.50337,N,10459.72843,W,1,04,9.73,1625.0,M,-21.7,M,,*45
$GNGSA,A,3,27,24,32,10,,,,,,,,,9.93,9.73,1.99*10
$GNGSA,A,3,,,,,,,,,,,,,9.93,9.73,1.99*13
$GPGSV,2,1,08,08,,,14,10,69,030,37,21,,,37,24,25,052,24*71
$GPGSV,2,2,08,27,25,248,44,32,70,244,39,48,36,220,38,51,44,184,43*7F
$GLGSV,2,1,05,,,,20,,,,34,,,,36,,,,36*66
$GLGSV,2,2,05,,,,20*62
$GNGLL,3939.50337,N,10459.72843,W,013600.00,A,A*60
$GNRMC,013601.00,A,3939.50373,N,10459.72822,W,1.628,3.27,060721,,,A*68
$GNVTG,3.27,T,,M,1.628,N,3.014,K,A*2E
$GNGGA,013601.00,3939.50373,N,10459.72822,W,1,04,9.75,1623.6,M,-21.7,M,,*45
$GNGSA,A,3,27,24,32,10,,,,,,,,,9.95,9.75,1.99*10
$GNGSA,A,3,,,,,,,,,,,,,9.95,9.75,1.99*13
$GPGSV,3,1,09,08,,,12,10,69,030,37,21,,,37,24,25,052,24*77
$GPGSV,3,2,09,27,25,248,44,32,70,244,39,46,38,215,,48,36,220,37*71
$GPGSV,3,3,09,51,44,184,43*4E
$GLGSV,2,1,05,,,,18,,,,34,,,,35,,,,36*6E
$GLGSV,2,2,05,,,,18*69
$GNGLL,3939.50373,N,10459.72822,W,013601.00,A,A*66
$GNRMC,013602.00,A,3939.50407,N,10459.72794,W,1.118,,060721,,,A*71
$GNVTG,,T,,M,1.118,N,2.071,K,A*30
$GNGGA,013602.00,3939.50407,N,10459.72794,W,1,04,9.76,1622.2,M,-21.7,M,,*46
$GNGSA,A,3,27,24,32,10,,,,,,,,,9.96,9.76,1.99*10
$GNGSA,A,3,,,,,,,,,,,,,9.96,9.76,1.99*13
$GPGSV,3,1,09,08,,,12,10,69,030,35,21,,,37,24,25,052,22*73
$GPGSV,3,2,09,27,25,248,43,32,70,244,39,46,38,215,,48,36,220,37*76
$GPGSV,3,3,09,51,44,184,43*4E
$GLGSV,2,1,05,,,,18,,,,33,,,,34,,,,36*68
$GLGSV,2,2,05,,,,18*69
$GNGLL,3939.50407,N,10459.72794,W,013602.00,A,A*63
$GNRMC,013603.00,A,3939.50360,N,10459.72713,W,0.496,,060721,,,A*7B
$GNVTG,,T,,M,0.496,N,0.918,K,A*36
$GNGGA,013603.00,3939.50360,N,10459.72713,W,1,04,9.78,1620.7,M,-21.7,M,,*47
$GNGSA,A,3,27,24,32,10,,,,,,,,,9.98,9.78,1.99*10
$GNGSA,A,3,,,,,,,,,,,,,9.98,9.78,1.99*13
$GPGSV,3,1,09,08,,,10,10,69,030,38,21,,,35,24,25,052,23*7F
$GPGSV,3,2,09,27,25,248,43,32,70,244,40,46,38,215,,48,36,220,36*79
$GPGSV,3,3,09,51,44,184,43*4E
$GLGSV,2,1,05,,,,19,,,,33,,,,33,,,,35*6D
$GLGSV,2,2,05,,,,19*68
$GNGLL,3939.50360,N,10459.72713,W,013603.00,A,A*6B
$GNRMC,013604.00,A,3939.50452,N,10459.72813,W,1.255,,060721,,,A*7D
$GNVTG,,T,,M,1.255,N,2.324,K,A*39
$GNGGA,013604.00,3939.50452,N,10459.72813,W,1,04,9.80,1620.3,M,-21.7,M,,*4A
$GNGSA,A,3,27,24,32,10,,,,,,,,,9.99,9.80,1.99*16
$GNGSA,A,3,,,,,,,,,,,,,9.99,9.80,1.99*15
$GPGSV,3,1,09,08,,,14,10,69,030,38,21,,,33,24,25,052,25*7B
$GPGSV,3,2,09,27,25,248,41,32,70,244,45,46,38,215,30,48,36,220,36*7D
$GPGSV,3,3,09,51,44,184,44*49
$GLGSV,1,1,04,,,,33,,,,34,,,,34,,,,31*63
$GNGLL,3939.50452,N,10459.72813,W,013604.00,A,A*65
$GNRMC,013605.00,A,3939.50519,N,10459.72879,W,0.604,,060721,,,A*7F
$GNVTG,,T,,M,0.604,N,1.119,K,A*37
$GNGGA,013605.00,3939.50519,N,10459.72879,W,1,04,9.81,1619.6,M,-21.7,M,,*47
$GNGSA,A,3,27,24,32,10,,,,,,,,,10.01,9.81,1.99*2E
$GNGSA,A,3,,,,,,,,,,,,,10.01,9.81,1.99*2D
$GPGSV,3,1,09,08,,,18,10,69,030,36,21,,,36,24,25,052,25*7C
$GPGSV,3,2,09,27,25,248,41,32,70,244,45,46,38,215,30,48,36,220,33*78
$GPGSV,3,3,09,51,44,184,39*43
$GLGSV,1,1,04,,,,29,,,,36,,,,28,,,,34*62
$GNGLL,3939.50519,N,10459.72879,W,013605.00,A,A*66
$GNRMC,013606.00,A,3939.50197,N,10459.72629,W,1.926,81.46,060721,,,A*5E
$GNVTG,81.46,T,,M,1.926,N,3.567,K,A*13
$GNGGA,013606.00,3939.50197,N,10459.72629,W,1,04,9.83,1617.8,M,-21.7,M,,*4F
$GNGSA,A,3,27,24,32,10,,,,,,,,,10.03,9.83,1.99*2E
$GNGSA,A,3,,,,,,,,,,,,,10.03,9.83,1.99*2D
$GPGSV,3,1,09,08,,,19,10,69,030,38,21,,,37,24,25,052,23*74
$GPGSV,3,2,09,27,25,248,43,32,70,244,44,46,38,215,31,48,36,220,33*7A
$GPGSV,3,3,09,51,44,184,38*42
$GLGSV,1,1,04,,,,30,,,,34,,,,26,,,,34*66
$GNGLL,3939.50197,N,10459.72629,W,013606.00,A,A*6C
$GNRMC,013607.00,A,3939.50252,N,10459.72658,W,2.480,,060721,,,A*74
$GNVTG,,T,,M,2.480,N,4.594,K,A*3F
$GNGGA,013607.00,3939.50252,N,10459.72658,W,1,04,9.84,1617.9,M,-21.7,M,,*44
$GNGSA,A,3,27,24,32,10,,,,,,,,,10.04,9.84,1.99*2E
$GNGSA,A,3,,,,,,,,,,,,,10.04,9.84,1.99*2D
$GPGSV,3,1,10,08,,,20,10,69,030,26,12,,,25,21,,,35*48
$GPGSV,3,2,10,24,25,052,23,27,25,248,43,32,70,244,44,46,38,215,37*7A
$GPGSV,3,3,10,48,36,220,32,51,44,184,34*7E
$GLGSV,1,1,03,,,,30,,,,38,,,,26*6A
$GNGLL,3939.50252,N,10459.72658,W,013607.00,A,A*61
$GNRMC,013608.00,A,3939.50277,N,10459.72679,W,0.707,,060721,,,A*71
$GNVTG,,T,,M,0.707,N,1.310,K,A*3E
$GNGGA,013608.00,3939.50277,N,10459.72679,W,1,04,9.86,1618.5,M,-21.7,M,,*4E
$GNGSA,A,3,27,24,32,10,,,,,,,,,10.06,9.86,1.99*2E
$GNGSA,A,3,,,,,,,,,,,,,10.06,9.86,1.99*2D
$GPGSV,3,1,10,08,,,27,10,69,030,37,12,,,21,21,,,27*48
$GPGSV,3,2,10,24,25,052,32,27,25,248,42,32,70,244,35,46,38,215,39*73
$GPGSV,3,3,10,48,36,220,29,51,44,184,36*76
$GLGSV,1,1,04,,,,31,,,,28,,,,21,,,,32*6B
$GNGLL,3939.50277,N,10459.72679,W,013608.00,A,A*6A
$GNRMC,013609.00,A,3939.50269,N,10459.72700,W,0.880,,060721,,,A*70
$GNVTG,,T,,M,0.880,N,1.629,K,A*31
$GNGGA,013609.00,3939.50269,N,10459.72700,W,1,04,9.88,1618.6,M,-21.7,M,,*42
$GNGSA,A,3,27,24,32,10,,,,,,,,,10.07,9.88,1.99*21
$GNGSA,A,3,,,,,,,,,,,,,10.07,9.88,1.99*22
$GPGSV,3,1,10,08,,,25,10,69,030,35,21,,,28,23,,,36*43
$GPGSV,3,2,10,24,25,052,31,27,25,248,41,32,70,244,40,46,38,215,39*71
$GPGSV,3,3,10,48,36,220,32,51,44,184,37*7D
$GLGSV,1,1,04,,,,27,,,,26,,,,25,,,,34*60
$GNGLL,3939.50269,N,10459.72700,W,013609.00,A,A*6B
$GNRMC,013610.00,A,3939.50402,N,10459.72833,W,1.246,,060721,,,A*7D
$GNVTG,,T,,M,1.246,N,2.308,K,A*35
$GNGGA,013610.00,3939.50402,N,10459.72833,W,1,04,9.89,1619.0,M,-21.7,M,,*48
$GNGSA,A,3,27,24,32,10,,,,,,,,,10.09,9.89,1.98*2F
$GNGSA,A,3,,,,,,,,,,,,,10.09,9.89,1.98*2C
$GPGSV,3,1,10,08,,,22,10,69,030,39,21,,,29,23,,,28*46
$GPGSV,3,2,10,24,25,052,30,27,25,248,34,32,70,244,40,46,38,215,43*7F
$GPGSV,3,3,10,48,36,220,36,51,44,184,32*7C
$GLGSV,1,1,04,68,,,32,84,61,230,27,,,,34,,,,27*53
$GNGLL,3939.50402,N,10459.72833,W,013610.00,A,A*67
$GNRMC,013611.00,A,3939.50509,N,10459.72969,W,1.901,,060721,,,A*70
$GNVTG,,T,,M,1.901,N,3.521,K,A*31
$GNGGA,013611.00,3939.50509,N,10459.72969,W,1,04,9.91,1619.4,M,-21.7,M,,*40
$GNGSA,A,3,27,24,32,10,,,,,,,,,10.11,9.91,1.98*2F
$GNGSA,A,3,,,,,,,,,,,,,10.11,9.91,1.98*2C
$GPGSV,3,1,10,08,,,19,10,69,030,41,21,,,27,23,,,36*40
$GPGSV,3,2,10,24,25,052,25,27,25,248,37,32,70,244,37,46,38,215,38*74
$GPGSV,3,3,10,48,36,220,41,51,44,184,34*7A
$GLGSV,1,1,04,68,,,32,84,61,230,31,,,,24,,,,36*55
$GNGLL,3939.50509,N,10459.72969,W,013611.00,A,A*62
$GNRMC,013611.00,A,3939.50591,N,10459.73160,W,4.176,23.45,060721,,,A*52
$GNVTG,23.45,T,,M,4.176,N,7.734,K,A*10
$GNGGA,013611.00,3939.50591,N,10459.73160,W,1,05,5.87,1619.2,M,-21.7,M,,*4D
$GNGSA,A,3,27,24,32,10,,,,,,,,,6.20,5.87,1.98*11
$GNGSA,A,3,84,,,,,,,,,,,,6.20,5.87,1.98*1E
$GPGSV,3,1,10,08,,,21,10,69,030,33,21,,,25,23,,,40*4D
$GPGSV,3,2,10,24,25,052,26,27,25,248,41,32,70,244,42,46,38,215,35*79
$GPGSV,3,3,10,48,36,220,37,51,44,184,31*7E
$GLGSV,1,1,04,68,,,27,84,61,230,29,,,,25,,,,29*57
$GNGLL,3939.50591,N,10459.73160,W,013611.00,A,A*63
$GNRMC,013612.00,A,3939.50565,N,10459.73295,W,3.480,,060721,,,A*76
$GNVTG,,T,,M,3.480,N,6.446,K,A*32
$GNGGA,013612.00,3939.50565,N,10459.73295,W,1,05,5.87,1619.3,M,-21.7,M,,*4D
$GNGSA,A,3,27,24,32,10,,,,,,,,,6.20,5.87,1.98*11
$GNGSA,A,3,84,,,,,,,,,,,,6.20,5.87,1.98*1E
$GPGSV,3,1,10,08,,,33,10,69,030,32,21,,,26,23,,,36*4D
$GPGSV,3,2,10,24,25,052,26,27,25,248,39,32,70,244,37,46,38,215,41*77
$GPGSV,3,3,10,48,36,220,39,51,44,184,37*76
$GLGSV,1,1,04,68,,,31,84,61,230,30,,,,27,,,,28*5B
$GNGLL,3939.50565,N,10459.73295,W,013612.00,A,A*62
$GNRMC,013613.00,A,3939.50560,N,10459.73494,W,5.363,315.73,060721,,,A*64
$GNVTG,315.73,T,,M,5.363,N,9.933,K,A*23
$GNGGA,013613.00,3939.50560,N,10459.73494,W,1,05,5.88,1619.0,M,-21.7,M,,*42
$GNGSA,A,3,27,24,32,10,,,,,,,,,6.20,5.88,1.98*1E
$GNGSA,A,3,84,,,,,,,,,,,,6.20,5.88,1.98*11
$GPGSV,3,1,11,08,,,33,10,69,030,42,18,,,42,21,,,32*45
$GPGSV,3,2,11,23,,,31,24,25,052,26,27,25,248,39,32,70,244,41*4E
$GPGSV,3,3,11,46,38,215,38,48,36,220,38,51,44,184,35*40
$GLGSV,1,1,04,68,,,31,84,61,230,29,,,,27,,,,28*53
$GNGLL,3939.50560,N,10459.73494,W,013613.00,A,A*61
$GNRMC,013614.00,A,3939.50574,N,10459.73714,W,5.125,284.07,060721,,,A*67
$GNVTG,284.07,T,,M,5.125,N,9.491,K,A*2C
$GNGGA,013614.00,3939.50574,N,10459.73714,W,1,05,5.88,1618.7,M,-21.7,M,,*4D
$GNGSA,A,3,27,24,32,10,,,,,,,,,6.20,5.88,1.98*1E
$GNGSA,A,3,84,,,,,,,,,,,,6.20,5.88,1.98*11
$GPGSV,3,1,11,08,,,33,10,69,030,44,18,,,38,21,,,27*4A
$GPGSV,3,2,11,23,,,26,24,25,052,27,27,25,248,37,32,70,244,45*43
$GPGSV,3,3,11,46,38,215,35,48,36,220,28,51,44,184,28*40
$GLGSV,1,1,04,68,,,25,84,61,230,28,,,,26,,,,27*59
$GNGLL,3939.50574,N,10459.73714,W,013614.00,A,A*68
$GNRMC,013615.00,A,3939.50638,N,10459.73977,W,5.379,267.54,060721,,,A*66
$GNVTG,267.54,T,,M,5.379,N,9.962,K,A*2D
$GNGGA,013615.00,3939.50638,N,10459.73977,W,1,05,5.88,1618.6,M,-21.7,M,,*4D
$GNGSA,A,3,27,24,32,10,,,,,,,,,6.20,5.88,1.98*1E
$GNGSA,A,3,84,,,,,,,,,,,,6.20,5.88,1.98*11
$GPGSV,3,1,11,08,,,37,10,69,030,38,18,,,33,21,,,27*4E
$GPGSV,3,2,11,23,,,25,24,25,052,27,27,25,248,42,32,70,244,47*40
$GPGSV,3,3,11,46,38,215,27,48,36,220,35,51,44,184,30*46
$GLGSV,1,1,04,68,,,24,84,61,230,30,,,,24,,,,33*56
$GNGLL,3939.50638,N,10459.73977,W,013615.00,A,A*69
$GNRMC,013616.00,A,3939.50697,N,10459.74259,W,6.145,268.69,060721,,,A*6F
$GNVTG,268.69,T,,M,6.145,N,11.381,K,A*1C
$GNGGA,013616.00,3939.50697,N,10459.74259,W,1,05,5.88,1618.9,M,-21.7,M,,*44
$GNGSA,A,3,27,24,32,10,,,,,,,,,6.20,5.88,1.98*1E
$GNGSA,A,3,84,,,,,,,,,,,,6.20,5.88,1.98*11
$GPGSV,3,1,11,08,,,34,10,69,030,31,18,,,29,21,,,27*4F
$GPGSV,3,2,11,23,,,33,24,25,052,27,27,25,248,41,32,70,244,47*44
$GPGSV,3,3,11,46,38,215,33,48,36,220,35,51,44,184,39*4A
$GLGSV,1,1,04,68,,,26,84,61,230,33,,,,24,,,,35*51
$GNGLL,3939.50697,N,10459.74259,W,013616.00,A,A*6F
$GNRMC,013617.00,A,3939.50710,N,10459.74518,W,6.431,265.88,060721,,,A*66
$GNVTG,265.88,T,,M,6.431,N,11.909,K,A*12
$GNGGA,013617.00,3939.50710,N,10459.74518,W,1,05,5.88,1619.0,M,-21.7,M,,*41
$GNGSA,A,3,27,24,32,10,,,,,,,,,6.21,5.88,1.98*1F
$GNGSA,A,3,84,,,,,,,,,,,,6.21,5.88,1.98*10
$GPGSV,3,1,11,08,,,38,10,69,030,32,18,,,30,21,,,27*48
$GPGSV,3,2,11,23,,,29,24,25,052,27,27,25,248,39,32,70,244,46*41
$GPGSV,3,3,11,46,38,215,29,48,36,220,35,51,44,184,39*41
$GLGSV,2,1,05,68,,,31,84,61,230,34,,,,24,,,,35*52
$GLGSV,2,2,05,,,,24*66
$GNGLL,3939.50710,N,10459.74518,W,013617.00,A,A*62
$GNRMC,013618.00,A,3939.50635,N,10459.74711,W,6.594,259.93,060721,,,A*6F
$GNVTG,259.93,T,,M,6.594,N,12.211,K,A*18
$GNGGA,013618.00,3939.50635,N,10459.74711,W,1,05,5.88,1618.7,M,-21.7,M,,*45
$GNGSA,A,3,27,24,32,10,,,,,,,,,6.21,5.88,1.98*1F
$GNGSA,A,3,84,,,,,,,,,,,,6.21,5.88,1.98*10
$GPGSV,3,1,11,08,,,30,10,69,030,40,18,,,33,21,,,28*49
$GPGSV,3,2,11,23,,,33,24,25,052,27,27,25,248,36,32,70,244,39*4D
$GPGSV,3,3,11,46,38,215,42,48,36,220,33,51,44,184,29*4B
$GLGSV,2,1,06,68,,,29,84,61,230,29,,,,24,,,,32*53
$GLGSV,2,2,06,,,,24,,,,32*64
$GNGLL,3939.50635,N,10459.74711,W,013618.00,A,A*60
$GNRMC,013619.00,A,3939.50503,N,10459.74817,W,4.783,,060721,,,A*7D
$GNVTG,,T,,M,4.783,N,8.859,K,A*39
$GNGGA,013619.00,3939.50503,N,10459.74817,W,1,05,5.88,1618.4,M,-21.7,M,,*48
$GNGSA,A,3,27,24,32,10,,,,,,,,,6.21,5.88,1.98*1F
$GNGSA,A,3,84,,,,,,,,,,,,6.21,5.88,1.98*10
$GPGSV,3,1,11,08,,,30,10,69,030,33,18,,,42,21,,,28*4B
$GPGSV,3,2,11,23,,,39,24,25,052,26,27,25,248,29,32,70,244,35*44
$GPGSV,3,3,11,46,38,215,34,48,36,220,39,51,44,184,44*4B
$GLGSV,2,1,05,68,,,28,84,61,230,28,,,,39,,,,22*5D
$GLGSV,2,2,05,,,,39*6A
$GNGLL,3939.50503,N,10459.74817,W,013619.00,A,A*6E
$GNRMC,013620.00,A,3939.50470,N,10459.74874,W,2.587,,060721,,,A*77
$GNVTG,,T,,M,2.587,N,4.791,K,A*3E
$GNGGA,013620.00,3939.50470,N,10459.74874,W,1,05,5.88,1618.6,M,-21.7,M,,*40
$GNGSA,A,3,27,24,32,10,,,,,,,,,6.21,5.88,1.98*1F
$GNGSA,A,3,84,,,,,,,,,,,,6.21,5.88,1.98*10
$GPGSV,3,1,11,08,,,28,10,69,030,42,18,,,38,21,,,27*46
$GPGSV,3,2,11,23,,,39,24,25,052,35,27,25,248,25,32,70,244,35*4A
$GPGSV,3,3,11,46,38,215,30,48,36,220,30,51,44,184,39*4C
$GLGSV,2,1,06,68,,,32,84,61,230,27,,,,37,,,,36*51
$GLGSV,2,2,06,,,,37,,,,36*62
$GNGLL,3939.50470,N,10459.74874,W,013620.00,A,A*64
$GNRMC,013621.00,A,3939.50604,N,10459.74910,W,2.606,,060721,,,A*7E
$GNVTG,,T,,M,2.606,N,4.826,K,A*37
$GNGGA,013621.00,3939.50604,N,10459.74910,W,1,05,5.89,1620.4,M,-21.7,M,,*4B
$GNGSA,A,3,27,24,32,10,,,,,,,,,6.21,5.89,1.98*1E
$GNGSA,A,3,84,,,,,,,,,,,,6.21,5.89,1.98*11
$GPGSV,3,1,11,08,,,26,10,69,030,39,18,,,34,21,,,26*49
$GPGSV,3,2,11,23,,,31,24,25,052,27,27,25,248,32,32,70,244,35*47
$GPGSV,3,3,11,46,38,215,33,48,36,220,33,51,44,184,38*4D
$GLGSV,2,1,06,68,,,30,84,61,230,25,,,,39,,,,30*59
$GLGSV,2,2,06,,,,39,,,,30*6A
$GNGLL,3939.50604,N,10459.74910,W,013621.00,A,A*67
$GNRMC,013622.00,A,3939.50615,N,10459.74734,W,4.750,,060721,,,A*71
$GNVTG,,T,,M,4.750,N,8.797,K,A*3A
$GNGGA,013622.00,3939.50615,N,10459.74734,W,1,05,5.89,1620.4,M,-21.7,M,,*40
$GNGSA,A,3,27,24,32,10,,,,,,,,,6.21,5.89,1.98*1E
$GNGSA,A,3,84,,,,,,,,,,,,6.21,5.89,1.98*11
$GPGSV,3,1,11,08,,,27,10,69,030,44,18,,,28,21,,,27*4E
$GPGSV,3,2,11,23,,,39,24,25,052,29,27,25,248,31,32,70,244,39*4E
$GPGSV,3,3,11,46,38,215,33,48,36,220,36,51,44,184,39*49
$GLGSV,2,1,06,68,,,35,84,61,230,30,,,,46,,,,40*57
$GLGSV,2,2,06,,,,46,,,,40*65
$GNGLL,3939.50615,N,10459.74734,W,013622.00,A,A*6C
$GNRMC,013623.00,A,3939.50656,N,10459.74596,W,4.477,,060721,,,A*7B
$GNVTG,,T,,M,4.477,N,8.291,K,A*3F
$GNGGA,013623.00,3939.50656,N,10459.74596,W,1,05,5.89,1620.2,M,-21.7,M,,*4A
$GNGSA,A,3,27,24,32,10,,,,,,,,,6.21,5.89,1.98*1E
$GNGSA,A,3,84,,,,,,,,,,,,6.21,5.89,1.98*11
$GPGSV,3,1,11,08,,,37,10,69,030,46,18,,,23,21,,,35*45
$GPGSV,3,2,11,23,,,39,24,25,052,34,27,25,248,34,32,70,244,43*4A
$GPGSV,3,3,11,46,38,215,33,48,36,220,33,51,44,184,38*4D
$GLGSV,2,1,06,68,,,35,84,61,230,30,,,,42,,,,38*5C
$GLGSV,2,2,06,,,,42,,,,38*6E
$GNGLL,3939.50656,N,10459.74596,W,013623.00,A,A*60
$GNRMC,013624.00,A,3939.51054,N,10459.74878,W,8.792,331.68,060721,,,A*61
$GNVTG,331.68,T,,M,8.792,N,16.283,K,A*16
$GNGGA,013624.00,3939.51054,N,10459.74878,W,1,05,5.89,1618.2,M,-21.7,M,,*4E
$GNGSA,A,3,27,24,32,10,,,,,,,,,6.21,5.89,1.98*1E
$GNGSA,A,3,84,,,,,,,,,,,,6.21,5.89,1.98*11
$GPGSV,3,1,11,08,,,41,10,69,030,47,18,,,25,21,,,35*43
$GPGSV,3,2,11,23,,,35,24,25,052,30,27,25,247,31,32,70,244,29*44
$GPGSV,3,3,11,46,38,215,33,48,36,220,39,51,44,184,28*46
$GLGSV,2,1,06,68,,,27,84,61,230,32,,,,42,,,,42*50
$GLGSV,2,2,06,,,,42,,,,42*63
$GNGLL,3939.51054,N,10459.74878,W,013624.00,A,A*6F
$GNRMC,013625.00,A,3939.51060,N,10459.74683,W,5.769,335.80,060721,,,A*66
$GNVTG,335.80,T,,M,5.769,N,10.684,K,A*18
$GNGGA,013625.00,3939.51060,N,10459.74683,W,1,04,14.19,1619.4,M,-21.7,M,,*7D
$GNGSA,A,3,27,32,10,,,,,,,,,,16.71,14.19,8.83*16
$GNGSA,A,3,84,,,,,,,,,,,,16.71,14.19,8.83*1F
$GPGSV,3,1,11,08,,,43,10,69,030,46,18,,,25,21,,,26*42
$GPGSV,3,2,11,23,,,32,24,25,052,,27,25,247,31,32,70,245,45*4B
$GPGSV,3,3,11,46,38,215,35,48,36,220,36,51,44,184,33*45
$GLGSV,2,1,06,68,,,32,84,61,230,30,,,,41,,,,34*54
$GLGSV,2,2,06,,,,41,,,,34*61
$GNGLL,3939.51060,N,10459.74683,W,013625.00,A,A*63
$GNRMC,013626.00,A,3939.51178,N,10459.74527,W,7.006,4.28,060721,,,A*6F
$GNVTG,4.28,T,,M,7.006,N,12.974,K,A*15
$GNGGA,013626.00,3939.51178,N,10459.74527,W,1,05,5.89,1619.3,M,-21.7,M,,*44
$GNGSA,A,3,27,24,32,10,,,,,,,,,6.22,5.89,1.98*1D
$GNGSA,A,3,84,,,,,,,,,,,,6.22,5.89,1.98*12
$GPGSV,3,1,11,08,,,27,10,69,030,44,18,,,25,21,,,39*4C
$GPGSV,3,2,11,23,,,40,24,25,052,36,27,25,247,31,32,70,245,34*4D
$GPGSV,3,3,11,46,38,215,41,48,36,220,38,51,44,184,30*4B
$GLGSV,2,1,06,68,,,32,84,61,230,31,,,,38,,,,38*57
$GLGSV,2,2,06,,,,38,,,,38*63
$GNGLL,3939.51178,N,10459.74527,W,013626.00,A,A*65
$GNRMC,013627.00,A,3939.51241,N,10459.74228,W,7.645,37.78,060721,,,A*5B
$GNVTG,37.78,T,,M,7.645,N,14.158,K,A*21
$GNGGA,013627.00,3939.51241,N,10459.74228,W,1,05,5.89,1619.1,M,-21.7,M,,*46
$GNGSA,A,3,27,24,32,10,,,,,,,,,6.22,5.89,1.98*1D
$GNGSA,A,3,84,,,,,,,,,,,,6.22,5.89,1.98*12
$GPGSV,3,1,11,08,,,38,10,69,030,44,18,,,25,21,,,36*4D
$GPGSV,3,2,11,23,,,37,24,25,052,38,27,25,247,39,32,70,245,41*49
$GPGSV,3,3,11,46,38,215,36,48,36,220,29,51,44,184,33*48
$GLGSV,2,1,06,68,,,28,84,61,230,32,,,,42,,,,30*5A
$GLGSV,2,2,06,,,,42,,,,30*66
$GNGLL,3939.51241,N,10459.74228,W,013627.00,A,A*65
$GNRMC,013628.00,A,3939.51325,N,10459.73876,W,10.351,68.88,060721,,,A*62
$GNVTG,68.88,T,,M,10.351,N,19.170,K,A*15
$GNGGA,013628.00,3939.51325,N,10459.73876,W,1,05,5.90,1619.6,M,-21.7,M,,*43
$GNGSA,A,3,27,24,32,10,,,,,,,,,6.22,5.90,1.98*15
$GNGSA,A,3,84,,,,,,,,,,,,6.22,5.90,1.98*1A
$GPGSV,3,1,11,08,,,28,10,69,030,46,18,,,31,21,,,36*4B
$GPGSV,3,2,11,23,,,40,24,25,052,28,27,25,247,37,32,70,245,42*45
$GPGSV,3,3,11,46,38,215,32,48,36,220,33,51,44,184,30*44
$GLGSV,2,1,06,68,,,28,84,61,230,30,,,,34,,,,31*58
$GLGSV,2,2,06,,,,34,,,,31*66
$GNGLL,3939.51325,N,10459.73876,W,013628.00,A,A*6F
$GNRMC,013629.00,A,3939.51354,N,10459.73443,W,12.638,81.08,060721,,,A*68
$GNVTG,81.08,T,,M,12.638,N,23.405,K,A*1C
$GNGGA,013629.00,3939.51354,N,10459.73443,W,1,04,14.08,1619.7,M,-21.7,M,,*7F
$GNGSA,A,3,27,32,10,,,,,,,,,,16.58,14.08,8.75*14
$GNGSA,A,3,84,,,,,,,,,,,,16.58,14.08,8.75*1D
$GPGSV,3,1,11,08,,,28,10,69,030,48,18,,,25,21,,,35*43
$GPGSV,3,2,11,23,,,41,24,25,052,,27,25,247,34,32,70,245,41*4E
$GPGSV,3,3,11,46,38,215,35,48,36,220,40,51,44,184,30*47
$GLGSV,2,1,06,68,,,27,84,61,230,30,,,,44,,,,36*57
$GLGSV,2,2,06,,,,44,,,,36*66
$GNGLL,3939.51354,N,10459.73443,W,013629.00,A,A*62
$GNRMC,013630.00,A,3939.51372,N,10459.72959,W,14.051,86.11,060721,,,A*63
$GNVTG,86.11,T,,M,14.051,N,26.023,K,A*19
$GNGGA,013630.00,3939.51372,N,10459.72959,W,1,05,5.90,1620.1,M,-21.7,M,,*48
$GNGSA,A,3,27,24,32,10,,,,,,,,,6.22,5.90,1.98*15
$GNGSA,A,3,84,,,,,,,,,,,,6.22,5.90,1.98*1A
$GPGSV,3,1,11,08,,,27,10,69,030,47,18,,,27,21,,,36*42
$GPGSV,3,2,11,23,,,39,24,25,052,34,27,25,247,34,32,70,245,40*47
$GPGSV,3,3,11,46,38,215,40,48,36,220,41,51,44,184,29*4C
$GLGSV,2,1,06,68,,,35,84,61,230,29,,,,44,,,,37*5D
$GLGSV,2,2,06,,,,44,,,,37*67
$GNGLL,3939.51372,N,10459.72959,W,013630.00,A,A*69
$GNRMC,013631.00,A,3939.51444,N,10459.72513,W,14.366,88.23,060721,,,A*6A
$GNVTG,88.23,T,,M,14.366,N,26.606,K,A*10
$GNGGA,013631.00,3939.51444,N,10459.72513,W,1,05,5.90,1621.2,M,-21.7,M,,*4B
$GNGSA,A,3,27,24,32,10,,,,,,,,,6.22,5.90,1.98*15
$GNGSA,A,3,84,,,,,,,,,,,,6.22,5.90,1.98*1A
$GPGSV,3,1,11,08,,,26,10,69,030,48,18,,,26,21,,,33*48
$GPGSV,3,2,11,23,,,40,24,25,052,32,27,25,247,31,32,70,245,40*4A
$GPGSV,3,3,11,46,38,215,34,48,36,220,37,51,44,184,36*40
$GLGSV,2,1,06,68,,,32,84,61,230,28,,,,40,,,,31*59
$GLGSV,2,2,06,,,,40,,,,31*65
$GNGLL,3939.51444,N,10459.72513,W,013631.00,A,A*68
$GNRMC,013632.00,A,3939.51519,N,10459.72102,W,13.937,89.81,060721,,,A*64
$GNVTG,89.81,T,,M,13.937,N,25.811,K,A*1B
$GNGGA,013632.00,3939.51519,N,10459.72102,W,1,05,5.90,1622.1,M,-21.7,M,,*45
$GNGSA,A,3,27,24,32,10,,,,,,,,,6.22,5.90,1.98*15
$GNGSA,A,3,84,,,,,,,,,,,,6.22,5.90,1.98*1A
$GPGSV,3,1,11,08,,,29,10,69,030,45,18,,,25,21,,,29*42
$GPGSV,3,2,11,23,,,41,24,25,052,40,27,25,247,30,32,70,245,37*4F
$GPGSV,3,3,11,46,38,215,40,48,36,220,41,51,44,184,28*4D
$GLGSV,2,1,06,68,,,38,84,61,230,28,,,,40,,,,27*54
$GLGSV,2,2,06,,,,40,,,,27*62
$GNGLL,3939.51519,N,10459.72102,W,013632.00,A,A*66
$GNRMC,013633.00,A,3939.51400,N,10459.71523,W,10.814,90.34,060721,,,A*6D
$GNVTG,90.34,T,,M,10.814,N,20.028,K,A*19
$GNGGA,013633.00,3939.51400,N,10459.71523,W,1,05,5.90,1619.9,M,-21.7,M,,*49
$GNGSA,A,3,27,24,32,10,,,,,,,,,6.22,5.90,1.98*15
$GNGSA,A,3,84,,,,,,,,,,,,6.22,5.90,1.98*1A
$GPGSV,3,1,11,08,,,34,10,69,030,45,18,,,30,21,,,28*4B
$GPGSV,3,2,11,23,,,40,24,25,052,41,27,25,247,29,32,70,245,38*48
$GPGSV,3,3,11,46,38,215,38,48,36,220,39,51,44,184,27*42
$GLGSV,2,1,06,68,,,38,84,61,230,28,,,,45,,,,25*53
$GLGSV,2,2,06,,,,45,,,,25*65
$GNGLL,3939.51400,N,10459.71523,W,013633.00,A,A*6A
$GNRMC,013634.00,A,3939.51453,N,10459.71306,W,6.955,93.32,060721,,,A*5B
$GNVTG,93.32,T,,M,6.955,N,12.882,K,A*26
$GNGGA,013634.00,3939.51453,N,10459.71306,W,1,05,5.90,1620.3,M,-21.7,M,,*49
$GNGSA,A,3,27,24,32,10,,,,,,,,,6.23,5.90,1.98*14
$GNGSA,A,3,84,,,,,,,,,,,,6.23,5.90,1.98*1B
$GPGSV,3,1,11,08,,,31,10,69,030,45,18,,,23,21,,,28*4C
$GPGSV,3,2,11,23,,,39,24,25,052,40,27,25,247,29,32,70,245,38*47
$GPGSV,3,3,11,46,38,215,37,48,36,220,38,51,44,184,29*42
$GLGSV,2,1,06,68,,,40,84,61,230,29,,,,45,,,,25*5D
$GLGSV,2,2,06,,,,45,,,,25*65
$GNGLL,3939.51453,N,10459.71306,W,013634.00,A,A*6A
$GNRMC,013635.00,A,3939.51487,N,10459.71229,W,2.490,102.34,060721,,,A*60
$GNVTG,102.34,T,,M,2.490,N,4.612,K,A*29
$GNGGA,013635.00,3939.51487,N,10459.71229,W,1,05,5.90,1620.2,M,-21.7,M,,*4C
$GNGSA,A,3,27,24,32,10,,,,,,,,,6.23,5.90,1.98*14
$GNGSA,A,3,84,,,,,,,,,,,,6.23,5.90,1.98*1B
$GPGSV,3,1,11,08,,,31,10,69,030,45,18,,,22,21,,,33*47
$GPGSV,3,2,11,23,,,41,24,25,052,41,27,25,247,29,32,70,245,39*48
$GPGSV,3,3,11,46,38,215,37,48,36,220,30,51,44,184,28*4B
$GLGSV,2,1,06,68,,,40,84,61,230,30,,,,44,,,,32*52
$GLGSV,2,2,06,,,,44,,,,32*62
$GNGLL,3939.51487,N,10459.71229,W,013635.00,A,A*6E
$GNRMC,013636.00,A,3939.51528,N,10459.71239,W,0.947,,060721,,,A*79
$GNVTG,,T,,M,0.947,N,1.753,K,A*37
$GNGGA,013636.00,3939.51528,N,10459.71239,W,1,05,5.91,1620.1,M,-21.7,M,,*48
$GNGSA,A,3,27,24,32,10,,,,,,,,,6.23,5.91,1.98*15
$GNGSA,A,3,84,,,,,,,,,,,,6.23,5.91,1.98*1A
$GPGSV,3,1,11,08,,,31,10,69,030,46,18,,,20,21,,,36*43
$GPGSV,3,2,11,23,,,40,24,25,052,40,27,25,247,30,32,70,245,39*40
$GPGSV,3,3,11,46,38,215,37,48,36,220,32,51,44,184,30*40
$GLGSV,2,1,06,68,,,40,84,61,230,30,,,,45,,,,27*57
$GLGSV,2,2,06,,,,45,,,,27*67
$GNGLL,3939.51528,N,10459.71239,W,013636.00,A,A*68
$GNRMC,013637.00,A,3939.51563,N,10459.71141,W,4.203,95.54,060721,,,A*57
$GNVTG,95.54,T,,M,4.203,N,7.783,K,A*10
$GNGGA,013637.00,3939.51563,N,10459.71141,W,1,06,5.84,1619.9,M,-21.7,M,,*4F
$GNGSA,A,3,27,24,32,10,,,,,,,,,6.12,5.84,1.83*19
$GNGSA,A,3,84,68,,,,,,,,,,,6.12,5.84,1.83*18
$GPGSV,3,1,11,08,,,30,10,69,030,46,18,,,20,21,,,35*41
$GPGSV,3,2,11,23,,,39,24,25,052,40,27,25,247,29,32,70,245,40*48
$GPGSV,3,3,11,46,38,215,33,48,36,220,35,51,44,184,*40
$GLGSV,2,1,06,68,24,051,38,84,61,230,30,,,,44,,,,26*6A
$GLGSV,2,2,06,,,,44,,,,26*67
$GNGLL,3939.51563,N,10459.71141,W,013637.00,A,A*6A
$GNRMC,013638.00,A,3939.51596,N,10459.70916,W,7.251,84.43,060721,,,A*5B
$GNVTG,84.43,T,,M,7.251,N,13.429,K,A*24
$GNGGA,013638.00,3939.51596,N,10459.70916,W,1,06,5.84,1619.8,M,-21.7,M,,*40
$GNGSA,A,3,27,24,32,10,,,,,,,,,6.12,5.84,1.83*19
$GNGSA,A,3,84,68,,,,,,,,,,,6.12,5.84,1.83*18
$GPGSV,3,1,11,08,,,30,10,69,030,46,18,,,20,21,,,34*40
$GPGSV,3,2,11,23,,,41,24,25,052,41,27,25,247,28,32,70,245,38*48
$GPGSV,3,3,11,46,38,215,32,48,36,220,34,51,44,184,31*42
$GLGSV,2,1,06,68,24,051,38,84,61,230,29,,,,44,,,,28*6C
$GLGSV,2,2,06,,,,44,,,,28*69
$GNGLL,3939.51596,N,10459.70916,W,013638.00,A,A*64
$GNRMC,013639.00,A,3939.51565,N,10459.70548,W,9.970,91.92,060721,,,A*5F
$GNVTG,91.92,T,,M,9.970,N,18.464,K,A*28
$GNGGA,013639.00,3939.51565,N,10459.70548,W,1,07,2.70,1620.0,M,-21.7,M,,*45
$GNGSA,A,3,27,24,32,10,,,,,,,,,3.16,2.70,1.65*1C
$GNGSA,A,3,84,68,69,,,,,,,,,,3.16,2.70,1.65*12
$GPGSV,3,1,11,08,,,29,10,69,030,48,18,,,29,21,,,36*4D
$GPGSV,3,2,11,23,,,41,24,25,052,39,27,25,247,28,32,70,245,38*47
$GPGSV,3,3,11,46,38,215,38,48,36,220,40,51,44,184,30*4A
$GLGSV,2,1,06,68,24,051,35,69,60,354,43,78,,,36,84,61,230,29*5D
$GLGSV,2,2,06,,,,27,,,,21*65
$GNGLL,3939.51565,N,10459.70548,W,013639.00,A,A*6E
$GNRMC,013640.00,A,3939.51575,N,10459.70184,W,10.652,92.93,060721,,,A*61
$GNVTG,92.93,T,,M,10.652,N,19.727,K,A*18
$GNGGA,013640.00,3939.51575,N,10459.70184,W,1,07,2.70,1619.7,M,-21.7,M,,*43
$GNGSA,A,3,27,24,32,10,,,,,,,,,3.16,2.70,1.65*1C
$GNGSA,A,3,84,68,69,,,,,,,,,,3.16,2.70,1.65*12
$GPGSV,3,1,11,08,,,29,10,69,030,47,18,,,29,21,,,38*4C
$GPGSV,3,2,11,23,,,41,24,25,052,39,27,25,247,25,32,70,245,40*45
$GPGSV,3,3,11,46,38,215,37,48,36,220,42,51,44,184,30*47
$GLGSV,2,1,06,68,24,051,37,69,60,354,44,78,,,33,84,61,230,30*55
$GLGSV,2,2,06,,,,24,,,,21*66
$GNGLL,3939.51575,N,10459.70184,W,013640.00,A,A*65
$GNRMC,013641.00,A,3939.51577,N,10459.69830,W,9.923,91.50,060721,,,A*51
$GNVTG,91.50,T,,M,9.923,N,18.378,K,A*2A
$GNGGA,013641.00,3939.51577,N,10459.69830,W,1,07,2.70,1619.0,M,-21.7,M,,*49
$GNGSA,A,3,27,24,32,10,,,,,,,,,3.16,2.70,1.65*1C
$GNGSA,A,3,84,68,69,,,,,,,,,,3.16,2.70,1.65*12
$GPGSV,3,1,11,08,,,33,10,69,030,46,18,,,33,21,,,36*43
$GPGSV,3,2,11,23,,,41,24,25,052,40,27,25,247,30,32,70,245,38*40
$GPGSV,3,3,11,46,38,215,39,48,36,220,37,51,44,184,30*4B
$GLGSV,2,1,06,68,24,051,39,69,60,354,43,78,,,38,84,61,230,30*57
$GLGSV,2,2,06,,,,34,,,,21*67
$GNGLL,3939.51577,N,10459.69830,W,013641.00,A,A*68
$GNRMC,013642.00,A,3939.51586,N,10459.69457,W,9.861,88.32,060721,,,A*5A
$GNVTG,88.32,T,,M,9.861,N,18.262,K,A*2B
$GNGGA,013642.00,3939.51586,N,10459.69457,W,1,07,2.70,1619.2,M,-21.7,M,,*4B
$GNGSA,A,3,27,24,32,10,,,,,,,,,3.16,2.70,1.65*1C
$GNGSA,A,3,84,68,69,,,,,,,,,,3.16,2.70,1.65*12
$GPGSV,3,1,11,08,,,33,10,69,030,45,18,,,35,21,,,39*49
$GPGSV,3,2,11,23,,,40,24,25,052,38,27,25,247,36,32,70,245,40*47
$GPGSV,3,3,11,46,38,215,35,48,36,220,37,51,44,184,31*46
$GLGSV,2,1,06,68,24,051,34,69,60,354,44,78,,,37,84,61,230,31*53
$GLGSV,2,2,06,,,,38,,,,22*68
$GNGLL,3939.51586,N,10459.69457,W,013642.00,A,A*68
$GNRMC,013643.00,A,3939.51589,N,10459.69109,W,8.796,87.78,060721,,,A*5D
$GNVTG,87.78,T,,M,8.796,N,16.291,K,A*2E
$GNGGA,013643.00,3939.51589,N,10459.69109,W,1,07,2.70,1619.5,M,-21.7,M,,*4C
$GNGSA,A,3,27,24,32,10,,,,,,,,,3.16,2.70,1.65*1C
$GNGSA,A,3,84,68,69,,,,,,,,,,3.16,2.70,1.65*12
$GPGSV,3,1,11,08,,,31,10,69,030,46,18,,,35,21,,,41*47
$GPGSV,3,2,11,23,,,43,24,25,052,39,27,25,247,35,32,70,245,40*46
$GPGSV,3,3,11,46,38,215,38,48,36,220,38,51,44,184,31*44
$GLGSV,2,1,06,68,24,051,32,69,60,354,45,78,,,37,84,61,230,31*54
$GLGSV,2,2,06,,,,37,,,,23*66
$GNGLL,3939.51589,N,10459.69109,W,013643.00,A,A*68
$GNRMC,013644.00,A,3939.51610,N,10459.68857,W,6.587,88.39,060721,,,A*5C
$GNVTG,88.39,T,,M,6.587,N,12.199,K,A*27
$GNGGA,013644.00,3939.51610,N,10459.68857,W,1,07,2.70,1619.6,M,-21.7,M,,*48
$GNGSA,A,3,27,24,32,10,,,,,,,,,3.16,2.70,1.65*1C
$GNGSA,A,3,84,68,69,,,,,,,,,,3.16,2.70,1.65*12
$GPGSV,3,1,11,08,,,36,10,69,030,46,18,,,35,21,,,38*4E
$GPGSV,3,2,11,23,,,43,24,25,052,41,27,25,247,35,32,70,245,41*48
$GPGSV,3,3,11,46,38,215,34,48,36,220,35,51,44,184,36*42
$GLGSV,2,1,06,68,24,051,36,69,60,354,44,78,,,38,84,61,230,30*5F
$GLGSV,2,2,06,,,,31,,,,22*61
$GNGLL,3939.51610,N,10459.68857,W,013644.00,A,A*6F
$GNRMC,013645.00,A,3939.51626,N,10459.68691,W,3.905,88.16,060721,,,A*52
$GNVTG,88.16,T,,M,3.905,N,7.233,K,A*1E
$GNGGA,013645.00,3939.51626,N,10459.68691,W,1,07,2.70,1619.7,M,-21.7,M,,*49
$GNGSA,A,3,27,24,32,10,,,,,,,,,3.16,2.70,1.65*1C
$GNGSA,A,3,84,68,69,,,,,,,,,,3.16,2.70,1.65*12
$GPGSV,3,1,11,08,,,36,10,69,030,46,18,,,38,21,,,38*43
$GPGSV,3,2,11,23,,,43,24,25,052,40,27,25,247,36,32,70,245,40*4B
$GPGSV,3,3,11,46,38,215,35,48,36,220,36,51,44,184,37*41
$GLGSV,2,1,06,68,24,051,36,69,60,354,43,78,,,39,84,61,230,29*51
$GLGSV,2,2,06,,,,31,,,,21*62
$GNGLL,3939.51626,N,10459.68691,W,013645.00,A,A*6F
$GNRMC,013646.00,A,3939.51686,N,10459.68561,W,4.876,81.41,060721,,,A*5E
$GNVTG,81.41,T,,M,4.876,N,9.031,K,A*19
$GNGGA,013646.00,3939.51686,N,10459.68561,W,1,07,2.70,1619.6,M,-21.7,M,,*4D
$GNGSA,A,3,27,24,32,10,,,,,,,,,3.16,2.70,1.65*1C
$GNGSA,A,3,84,68,69,,,,,,,,,,3.16,2.70,1.65*12
$GPGSV,3,1,11,08,,,30,10,69,030,48,18,,,33,21,,,35*4D
$GPGSV,3,2,11,23,,,41,24,25,052,40,27,25,247,35,32,70,245,42*48
$GPGSV,3,3,11,46,38,215,34,48,36,220,36,51,44,184,38*4F
$GLGSV,2,1,06,68,24,051,32,69,60,354,40,78,,,39,84,61,230,29*56
$GLGSV,2,2,06,,,,36,,,,23*67
$GNGLL,3939.51686,N,10459.68561,W,013646.00,A,A*6A
$GNRMC,013647.00,A,3939.51811,N,10459.68380,W,7.517,61.81,060721,,,A*5D
$GNVTG,61.81,T,,M,7.517,N,13.922,K,A*22
$GNGGA,013647.00,3939.51811,N,10459.68380,W,1,07,2.70,1619.5,M,-21.7,M,,*46
$GNGSA,A,3,27,24,32,10,,,,,,,,,3.16,2.70,1.65*1C
$GNGSA,A,3,84,68,69,,,,,,,,,,3.16,2.70,1.65*12
$GPGSV,3,1,11,08,,,30,10,69,030,45,18,,,28,21,,,28*46
$GPGSV,3,2,11,23,,,39,24,25,052,42,27,25,247,29,32,70,245,34*49
$GPGSV,3,3,11,46,38,215,40,48,36,220,39,51,44,184,40*4C
$GLGSV,2,1,06,68,24,051,37,69,60,354,42,78,,,36,84,61,230,32*54
$GLGSV,2,2,06,,,,42,,,,24*63
$GNGLL,3939.51811,N,10459.68380,W,013647.00,A,A*62
$GNRMC,013648.00,A,3939.52015,N,10459.68200,W,9.566,33.54,060721,,,A*53
$GNVTG,33.54,T,,M,9.566,N,17.716,K,A*28
$GNGGA,013648.00,3939.52015,N,10459.68200,W,1,07,2.70,1620.0,M,-21.7,M,,*40
$GNGSA,A,3,27,24,32,10,,,,,,,,,3.16,2.70,1.65*1C
$GNGSA,A,3,84,68,69,,,,,,,,,,3.16,2.70,1.65*12
$GPGSV,3,1,11,08,,,44,10,69,030,39,18,,,30,21,,,37*49
$GPGSV,3,2,11,23,,,38,24,25,052,33,27,25,247,37,32,70,245,46*44
$GPGSV,3,3,11,46,38,215,29,48,36,220,30,51,44,184,37*4A
$GLGSV,2,1,05,68,24,051,39,69,60,354,45,78,,,32,84,61,230,29*50
$GLGSV,2,2,05,,,,38*6B
$GNGLL,3939.52015,N,10459.68200,W,013648.00,A,A*6B
$GNRMC,013649.00,A,3939.52303,N,10459.68105,W,11.601,16.10,060721,,,A*6C
$GNVTG,16.10,T,,M,11.601,N,21.486,K,A*1B
$GNGGA,013649.00,3939.52303,N,10459.68105,W,1,07,2.70,1620.4,M,-21.7,M,,*47
$GNGSA,A,3,27,24,32,10,,,,,,,,,3.16,2.70,1.65*1C
$GNGSA,A,3,84,68,69,,,,,,,,,,3.16,2.70,1.65*12
$GPGSV,3,1,11,08,,,29,10,69,030,35,18,,,24,21,,,35*49
$GPGSV,3,2,11,23,,,41,24,25,052,29,27,25,247,43,32,70,245,39*4A
$GPGSV,3,3,11,46,38,215,34,48,36,220,30,51,44,184,29*49
$GLGSV,2,1,05,68,24,051,26,69,60,354,43,78,,,25,84,61,230,30*56
$GLGSV,2,2,05,,,,33*60
$GNGLL,3939.52303,N,10459.68105,W,013649.00,A,A*68
$GNRMC,013650.00,A,3939.52695,N,10459.68099,W,14.426,4.13,060721,,,A*58
$GNVTG,4.13,T,,M,14.426,N,26.717,K,A*25
$GNGGA,013650.00,3939.52695,N,10459.68099,W,1,07,2.70,1620.5,M,-21.7,M,,*40
$GNGSA,A,3,27,24,32,10,,,,,,,,,3.16,2.70,1.65*1C
$GNGSA,A,3,84,68,69,,,,,,,,,,3.16,2.70,1.65*12
$GPGSV,3,1,11,08,,,29,10,69,030,35,18,,,26,21,,,24*4B
$GPGSV,3,2,11,23,,,32,24,25,052,33,27,25,247,39,32,70,245,35*44
$GPGSV,3,3,11,46,38,215,34,48,36,220,34,51,44,184,30*45
$GLGSV,2,1,05,68,24,051,26,69,60,354,40,78,,,25,84,61,230,27*53
$GLGSV,2,2,05,,,,28*6A
$GNGLL,3939.52695,N,10459.68099,W,013650.00,A,A*6E
$GNRMC,013651.00,A,3939.53155,N,10459.68126,W,17.009,357.68,060721,,,A*55
$GNVTG,357.68,T,,M,17.009,N,31.501,K,A*25
$GNGGA,013651.00,3939.53155,N,10459.68126,W,1,07,2.70,1620.6,M,-21.7,M,,*4D
$GNGSA,A,3,27,24,32,10,,,,,,,,,3.16,2.70,1.65*1C
$GNGSA,A,3,84,68,69,,,,,,,,,,3.16,2.70,1.65*12
$GPGSV,3,1,11,08,,,32,10,69,030,32,18,,,28,21,,,26*4A
$GPGSV,3,2,11,23,,,37,24,25,052,28,27,25,247,27,32,70,245,34*45
$GPGSV,3,3,11,46,38,215,42,48,36,220,33,51,44,184,32*41
$GLGSV,2,1,05,68,24,051,26,69,60,354,38,78,,,25,84,61,230,26*5D
$GLGSV,2,2,05,,,,28*6A
$GNGLL,3939.53155,N,10459.68126,W,013651.00,A,A*60
$GNRMC,013652.00,A,3939.53690,N,10459.68142,W,19.417,359.97,060721,,,A*51
$GNVTG,359.97,T,,M,19.417,N,35.960,K,A*21
$GNGGA,013652.00,3939.53690,N,10459.68142,W,1,07,2.70,1620.7,M,-21.7,M,,*43
$GNGSA,A,3,27,24,32,10,,,,,,,,,3.16,2.70,1.65*1C
$GNGSA,A,3,84,68,69,,,,,,,,,,3.16,2.70,1.65*12
$GPGSV,3,1,11,08,,,32,10,69,031,27,18,,,28,21,,,32*4A
$GPGSV,3,2,11,23,,,30,24,25,052,33,27,25,247,36,32,70,245,34*48
$GPGSV,3,3,11,46,38,215,37,48,36,220,34,51,44,184,34*42
$GLGSV,2,1,05,68,24,051,31,69,60,354,38,78,,,25,84,61,230,28*55
$GLGSV,2,2,05,,,,32*61
$GNGLL,3939.53690,N,10459.68142,W,013652.00,A,A*6F
$GNRMC,013653.00,A,3939.54279,N,10459.68177,W,21.341,357.98,060721,,,A*5C
$GNVTG,357.98,T,,M,21.341,N,39.523,K,A*28
$GNGGA,013653.00,3939.54279,N,10459.68177,W,1,07,2.70,1620.4,M,-21.7,M,,*43
$GNGSA,A,3,27,24,32,10,,,,,,,,,3.16,2.70,1.65*1C
$GNGSA,A,3,84,68,69,,,,,,,,,,3.16,2.70,1.65*12
$GPGSV,3,1,11,08,,,35,10,69,031,27,18,,,29,21,,,36*48
$GPGSV,3,2,11,23,,,36,24,25,052,32,27,25,247,32,32,70,245,27*49
$GPGSV,3,3,11,46,38,215,38,48,36,220,37,51,44,184,34*4E
$GLGSV,2,1,05,68,24,051,26,69,60,354,38,78,,,30,84,61,230,28*57
$GLGSV,2,2,05,,,,29*6B
$GNGLL,3939.54279,N,10459.68177,W,013653.00,A,A*6C
$GNRMC,013654.00,A,3939.54913,N,10459.68197,W,23.202,358.72,060721,,,A*5D
$GNVTG,358.72,T,,M,23.202,N,42.970,K,A*21
$GNGGA,013654.00,3939.54913,N,10459.68197,W,1,07,2.70,1620.4,M,-21.7,M,,*4D
$GNGSA,A,3,27,24,32,10,,,,,,,,,3.16,2.70,1.65*1C
$GNGSA,A,3,84,68,69,,,,,,,,,,3.16,2.70,1.65*12
$GPGSV,3,1,11,08,,,33,10,69,031,27,18,,,27,21,,,35*43
$GPGSV,3,2,11,23,,,35,24,25,052,26,27,25,247,38,32,70,245,26*44
$GPGSV,3,3,11,46,38,215,37,48,36,220,37,51,44,184,33*46
$GLGSV,2,1,05,68,24,051,26,69,60,354,38,78,,,23,84,61,230,28*55
$GLGSV,2,2,05,,,,38*6B
$GNGLL,3939.54913,N,10459.68197,W,013654.00,A,A*62
$GNRMC,013655.00,A,3939.55560,N,10459.68169,W,24.006,359.23,060721,,,A*50
$GNVTG,359.23,T,,M,24.006,N,44.460,K,A*2F
$GNGGA,013655.00,3939.55560,N,10459.68169,W,1,07,2.70,1621.1,M,-21.7,M,,*40
$GNGSA,A,3,27,24,32,10,,,,,,,,,3.16,2.70,1.65*1C
$GNGSA,A,3,84,68,69,,,,,,,,,,3.16,2.70,1.65*12
$GPGSV,3,1,11,08,,,35,10,69,031,27,18,,,27,21,,,33*43
$GPGSV,3,2,11,23,,,29,24,25,052,27,27,25,247,43,32,70,245,27*45
$GPGSV,3,3,11,46,38,215,34,48,36,220,34,51,44,184,33*46
$GLGSV,2,1,05,68,24,051,26,69,60,354,38,78,,,22,84,61,230,28*54
$GLGSV,2,2,05,,,,37*64
$GNGLL,3939.55560,N,10459.68169,W,013655.00,A,A*6B
$GNRMC,013656.00,A,3939.56224,N,10459.68163,W,24.532,359.09,060721,,,A*57
$GNVTG,359.09,T,,M,24.532,N,45.434,K,A*25
$GNGGA,013656.00,3939.56224,N,10459.68163,W,1,07,2.70,1621.8,M,-21.7,M,,*44
$GNGSA,A,3,27,24,32,10,,,,,,,,,3.16,2.70,1.65*1C
$GNGSA,A,3,84,68,69,,,,,,,,,,3.16,2.70,1.65*12
$GPGSV,3,1,11,08,,,37,10,69,031,27,18,,,26,21,,,27*45
$GPGSV,3,2,11,23,,,38,24,25,052,27,27,25,247,43,32,70,245,26*44
$GPGSV,3,3,11,46,38,215,43,48,36,220,38,51,44,184,32*4B
$GLGSV,2,1,05,68,24,051,25,69,60,354,39,78,,,30,84,61,230,28*55
$GLGSV,2,2,05,,,,38*6B
$GNGLL,3939.56224,N,10459.68163,W,013656.00,A,A*66
$GNRMC,013657.00,A,3939.56915,N,10459.68184,W,25.171,358.42,060721,,,A*5A
$GNVTG,358.42,T,,M,25.171,N,46.617,K,A*29
$GNGGA,013657.00,3939.56915,N,10459.68184,W,1,07,2.70,1622.4,M,-21.7,M,,*4A
$GNGSA,A,3,27,24,32,10,,,,,,,,,3.16,2.70,1.65*1C
$GNGSA,A,3,84,68,69,,,,,,,,,,3.16,2.70,1.65*12
$GPGSV,3,1,11,08,,,32,10,69,031,27,18,,,25,21,,,33*46
$GPGSV,3,2,11,23,,,31,24,25,052,25,27,25,247,39,32,70,245,28*4C
$GPGSV,3,3,11,46,38,215,41,48,36,220,38,51,44,184,31*4A
$GLGSV,2,1,06,68,24,051,26,69,60,354,39,78,,,29,83,14,177,*52
$GLGSV,2,2,06,84,61,230,28,,,,34*54
$GNGLL,3939.56915,N,10459.68184,W,013657.00,A,A*67
$GNRMC,013658.00,A,3939.57653,N,10459.68301,W,26.594,352.91,060721,,,A*5E
$GNVTG,352.91,T,,M,26.594,N,49.251,K,A*28
$GNGGA,013658.00,3939.57653,N,10459.68301,W,1,07,4.05,1623.0,M,-21.7,M,,*47
$GNGSA,A,3,27,24,32,10,,,,,,,,,5.94,4.05,4.35*14
$GNGSA,A,3,84,68,69,,,,,,,,,,5.94,4.05,4.35*1A
$GPGSV,3,1,11,08,,,36,10,69,031,28,18,,,26,21,,,29*45
$GPGSV,3,2,11,23,,,35,24,25,052,31,27,25,247,42,32,70,245,34*4C
$GPGSV,3,3,11,46,38,215,43,48,36,220,39,51,44,184,30*48
$GLGSV,2,1,06,68,24,051,32,69,60,354,39,78,,,27,83,14,177,*59
$GLGSV,2,2,06,84,61,230,27,,,,37*58
$GNGLL,3939.57653,N,10459.68301,W,013658.00,A,A*6B
$GNRMC,013659.00,A,3939.58359,N,10459.68316,W,25.526,359.64,060721,,,A*52
$GNVTG,359.64,T,,M,25.526,N,47.275,K,A*2B
$GNGGA,013659.00,3939.58359,N,10459.68316,W,1,06,4.05,1623.1,M,-21.7,M,,*40
$GNGSA,A,3,24,32,10,,,,,,,,,,5.94,4.05,4.35*11
$GNGSA,A,3,84,68,69,,,,,,,,,,5.94,4.05,4.35*1A
$GPGSV,3,1,11,08,,,32,10,69,031,28,18,,,23,21,,,29*44
$GPGSV,3,2,11,23,,,38,24,25,052,31,27,25,247,,32,70,245,34*47
$GPGSV,3,3,11,46,38,215,41,48,36,220,37,51,44,184,33*47
$GLGSV,2,1,06,68,24,051,27,69,60,354,39,78,,,26,83,14,177,*5C
$GLGSV,2,2,06,84,61,230,27,,,,37*58
$GNGLL,3939.58359,N,10459.68316,W,013659.00,A,A*6C
$GNRMC,013700.00,A,3939.59056,N,10459.68305,W,25.417,359.82,060721,,,A*5B
$GNVTG,359.82,T,,M,25.417,N,47.073,K,A*24
$GNGGA,013700.00,3939.59056,N,10459.68305,W,1,07,2.70,1624.3,M,-21.7,M,,*42
$GNGSA,A,3,27,24,32,10,,,,,,,,,3.16,2.70,1.65*1C
$GNGSA,A,3,84,68,69,,,,,,,,,,3.16,2.70,1.65*12
$GPGSV,3,1,11,08,,,32,10,69,031,29,18,,,24,21,,,24*4F
$GPGSV,3,2,11,23,,,38,24,25,052,30,27,25,247,41,32,70,245,34*43
$GPGSV,3,3,11,46,38,215,40,48,36,220,39,51,44,184,31*4A
$GLGSV,2,1,06,68,24,051,26,69,60,354,39,78,,,26,83,14,177,*5D
$GLGSV,2,2,06,84,61,230,27,,,,36*59
$GNGLL,3939.59056,N,10459.68305,W,013700.00,A,A*6E
$GNRMC,013701.00,A,3939.59761,N,10459.68354,W,25.445,355.97,060721,,,A*52
$GNVTG,355.97,T,,M,25.445,N,47.125,K,A*29
$GNGGA,013701.00,3939.59761,N,10459.68354,W,1,07,2.70,1625.8,M,-21.7,M,,*4E
$GNGSA,A,3,27,24,32,10,,,,,,,,,3.16,2.70,1.65*1C
$GNGSA,A,3,84,68,69,,,,,,,,,,3.16,2.70,1.65*12
$GPGSV,3,1,11,08,,,33,10,69,031,29,18,,,26,21,,,29*41
$GPGSV,3,2,11,23,,,32,24,25,052,25,27,25,247,36,32,70,245,34*4D
$GPGSV,3,3,11,46,38,215,38,48,36,220,40,51,44,184,32*48
$GLGSV,2,1,06,68,24,051,25,69,60,354,39,78,,,25,83,14,177,*5D
$GLGSV,2,2,06,84,61,230,27,,,,35*5A
$GNGLL,3939.59761,N,10459.68354,W,013701.00,A,A*68
$GNRMC,013702.00,A,3939.60402,N,10459.68366,W,22.624,358.60,060721,,,A*5B
$GNVTG,358.60,T,,M,22.624,N,41.900,K,A*27
$GNGGA,013702.00,3939.60402,N,10459.68366,W,1,07,2.70,1626.2,M,-21.7,M,,*49
$GNGSA,A,3,27,24,32,10,,,,,,,,,3.16,2.70,1.65*1C
$GNGSA,A,3,84,68,69,,,,,,,,,,3.16,2.70,1.65*12
$GPGSV,3,1,11,08,,,32,10,69,031,29,18,,,26,21,,,30*48
$GPGSV,3,2,11,23,,,27,24,25,052,26,27,25,247,42,32,70,245,33*4E
$GPGSV,3,3,11,46,38,215,38,48,36,220,39,51,44,184,32*46
$GLGSV,2,1,06,68,24,051,24,69,60,354,40,78,,,25,83,14,177,*52
$GLGSV,2,2,06,84,61,230,27,,,,35*5A
$GNGLL,3939.60402,N,10459.68366,W,013702.00,A,A*66
$GNRMC,013703.00,A,3939.60969,N,10459.68369,W,19.842,358.77,060721,,,A*55
$GNVTG,358.77,T,,M,19.842,N,36.747,K,A*2A
$GNGGA,013703.00,3939.60969,N,10459.68369,W,1,07,2.70,1626.7,M,-21.7,M,,*42
$GNGSA,A,3,27,24,32,10,,,,,,,,,3.16,2.70,1.65*1C
$GNGSA,A,3,84,68,69,,,,,,,,,,3.16,2.70,1.65*12
$GPGSV,3,1,11,08,,,27,10,69,031,29,18,,,24,21,,,31*4F
$GPGSV,3,2,11,23,,,39,24,25,052,26,27,25,247,40,32,70,245,36*46
$GPGSV,3,3,11,46,38,215,38,48,36,220,39,51,44,184,31*45
$GLGSV,2,1,06,68,24,051,24,69,60,354,40,78,,,25,83,14,177,*52
$GLGSV,2,2,06,84,61,230,27,,,,34*5B
$GNGLL,3939.60969,N,10459.68369,W,013703.00,A,A*68
$GNRMC,013704.00,A,3939.61447,N,10459.68368,W,16.312,359.09,060721,,,A*5A
$GNVTG,359.09,T,,M,16.312,N,30.211,K,A*23
$GNGGA,013704.00,3939.61447,N,10459.68368,W,1,07,2.70,1626.8,M,-21.7,M,,*4B
$GNGSA,A,3,27,24,32,10,,,,,,,,,3.16,2.70,1.65*1C
$GNGSA,A,3,84,68,69,,,,,,,,,,3.16,2.70,1.65*12
$GPGSV,3,1,11,08,,,28,10,69,031,33,18,,,23,21,,,31*4C
$GPGSV,3,2,11,23,,,27,24,25,052,27,27,25,247,38,32,70,245,36*47
$GPGSV,3,3,11,46,38,215,39,48,36,220,39,51,44,184,30*45
$GLGSV,2,1,06,68,24,051,22,69,60,354,40,78,,,24,83,14,177,*55
$GLGSV,2,2,06,84,61,230,27,,,,34*5B
$GNGLL,3939.61447,N,10459.68368,W,013704.00,A,A*6E
$GNRMC,013705.00,A,3939.61823,N,10459.68358,W,13.000,359.02,060721,,,A*58
$GNVTG,359.02,T,,M,13.000,N,24.075,K,A*28
$GNGGA,013705.00,3939.61823,N,10459.68358,W,1,07,2.70,1626.9,M,-21.7,M,,*46
$GNGSA,A,3,27,24,32,10,,,,,,,,,3.16,2.70,1.65*1C
$GNGSA,A,3,84,68,69,,,,,,,,,,3.16,2.70,1.65*12
$GPGSV,3,1,11,08,,,26,10,69,031,29,18,,,22,21,,,34*4D
$GPGSV,3,2,11,23,,,34,24,25,052,26,27,25,247,38,32,70,245,32*40
$GPGSV,3,3,11,46,38,215,40,48,36,220,40,51,44,184,29*4D
$GLGSV,2,1,06,68,24,051,23,69,60,354,41,78,,,26,83,14,177,*57
$GLGSV,2,2,06,84,61,230,28,,,,34*54
$GNGLL,3939.61823,N,10459.68358,W,013705.00,A,A*62
$GNRMC,013706.00,A,3939.62116,N,10459.68387,W,10.005,356.45,060721,,,A*5F
$GNVTG,356.45,T,,M,10.005,N,18.529,K,A*21
$GNGGA,013706.00,3939.62116,N,10459.68387,W,1,07,2.70,1627.8,M,-21.7,M,,*4B
$GNGSA,A,3,27,24,32,10,,,,,,,,,3.16,2.70,1.65*1C
$GNGSA,A,3,84,68,69,,,,,,,,,,3.16,2.70,1.65*12
$GPGSV,3,1,11,08,,,31,10,69,031,29,18,,,23,21,,,37*49
$GPGSV,3,2,11,23,,,31,24,25,052,26,27,25,247,40,32,70,245,32*4A
$GPGSV,3,3,11,46,38,215,38,48,36,220,38,51,44,184,30*45
$GLGSV,2,1,06,68,24,051,23,69,60,354,41,78,,,24,83,14,177,*55
$GLGSV,2,2,06,84,61,230,27,,,,35*5A
$GNGLL,3939.62116,N,10459.68387,W,013706.00,A,A*6F
$GNRMC,013707.00,A,3939.62308,N,10459.68345,W,7.036,358.24,060721,,,A*62
$GNVTG,358.24,T,,M,7.036,N,13.031,K,A*19
$GNGGA,013707.00,3939.62308,N,10459.68345,W,1,07,2.70,1627.2,M,-21.7,M,,*43
$GNGSA,A,3,27,24,32,10,,,,,,,,,3.16,2.70,1.65*1C
$GNGSA,A,3,84,68,69,,,,,,,,,,3.16,2.70,1.65*12
$GPGSV,3,1,11,08,,,31,10,69,031,16,18,,,25,21,,,31*45
$GPGSV,3,2,11,23,,,30,24,25,052,35,27,25,247,40,32,70,245,27*4D
$GPGSV,3,3,11,46,38,215,40,48,36,220,40,51,44,184,30*45
$GLGSV,2,1,06,68,24,051,24,69,60,354,41,78,,,24,83,14,177,*52
$GLGSV,2,2,06,84,61,230,27,,,,32*5D
$GNGLL,3939.62308,N,10459.68345,W,013707.00,A,A*6D
$GNRMC,013708.00,A,3939.62452,N,10459.68300,W,5.154,0.13,060721,,,A*69
$GNVTG,0.13,T,,M,5.154,N,9.546,K,A*2A
$GNGGA,013708.00,3939.62452,N,10459.68300,W,1,07,2.70,1626.5,M,-21.7,M,,*43
$GNGSA,A,3,27,24,32,10,,,,,,,,,3.16,2.70,1.64*1D
$GNGSA,A,3,84,68,69,,,,,,,,,,3.16,2.70,1.64*13
$GPGSV,3,1,11,08,,,32,10,69,031,28,18,,,24,21,,,32*49
$GPGSV,3,2,11,23,,,29,24,25,052,35,27,25,247,40,32,70,245,29*4B
$GPGSV,3,3,11,46,38,215,38,48,36,220,40,51,44,184,29*42
$GLGSV,2,1,06,68,24,051,30,69,60,354,41,78,,,30,83,14,177,*52
$GLGSV,2,2,06,84,61,230,26,,,,35*5B
$GNGLL,3939.62452,N,10459.68300,W,013708.00,A,A*6B
$GNRMC,013709.00,A,3939.62535,N,10459.68281,W,2.158,358.89,060721,,,A*66
$GNVTG,358.89,T,,M,2.158,N,3.996,K,A*27
$GNGGA,013709.00,3939.62535,N,10459.68281,W,1,08,1.45,1626.4,M,-21.7,M,,*41
$GNGSA,A,3,27,24,32,10,,,,,,,,,2.16,1.45,1.59*17
$GNGSA,A,3,84,68,69,85,,,,,,,,,2.16,1.45,1.59*14
$GPGSV,3,1,11,08,,,33,10,69,031,28,18,,,24,21,,,30*4A
$GPGSV,3,2,11,23,,,28,24,25,052,35,27,25,247,42,32,70,245,33*43
$GPGSV,3,3,11,46,38,215,41,48,36,220,40,51,44,184,33*47
$GLGSV,2,1,06,68,24,051,29,69,60,354,43,78,,,28,83,14,177,*51
$GLGSV,2,2,06,84,61,230,27,85,33,322,37*66
$GNGLL,3939.62535,N,10459.68281,W,013709.00,A,A*62
$GNRMC,013710.00,A,3939.62606,N,10459.68291,W,5.601,338.15,060721,,,A*63
$GNVTG,338.15,T,,M,5.601,N,10.374,K,A*1C
