$GPGSV,4,1,14,02,18,067,17,07,11,288,21,08,57,293,25,10,56,118,16,1*66
$GPGSV,4,2,14,15,07,029,19,16,40,185,14,18,16,064,13,21,26,250,22,1*63
$GPGSV,4,3,14,23,42,061,24,27,83,109,24,30,09,320,17,01,00,244,,1*6E
$GPGSV,4,4,14,13,01,004,,26,08,171,,1*6D
$GPGSV,2,1,06,01,00,244,,08,57,293,,10,56,118,,26,08,171,,8*68
$GPGSV,2,2,06,27,83,109,,30,09,320,,8*66
$GPGGA,145607.00,5101.586447,N,00342.812315,E,1,07,1.6,3.5,M,47.0,M,,*68
$GAGGA,145607.00,5101.586447,N,00342.812315,E,1,00,1.6,3.5,M,47.0,M,,*7E
$GPVTG,,T,2.0,M,0.0,N,0.0,K,A*0F
$GAVTG,,T,2.0,M,0.0,N,0.0,K,A*1E
$GPRMC,145607.00,A,5101.586447,N,00342.812315,E,0.0,,210423,2.0,W,A,V*76
$GARMC,145607.00,A,5101.586447,N,00342.812315,E,0.0,,210423,2.0,W,A,V*67
$GPGSA,A,3,02,07,08,15,21,23,27,,,,,,1.8,1.6,0.8,1*27
$GAGSA,A,3,,,,,,,,,,,,,1.8,1.6,0.8,3*3A
$GPGSV,4,1,14,02,18,067,17,07,11,288,21,08,57,293,25,10,56,118,14,1*64
$GPGSV,4,2,14,15,07,029,19,16,40,185,14,18,16,064,13,21,26,250,22,1*63
$GPGSV,4,3,14,23,42,061,25,27,83,109,25,30,09,320,17,01,00,244,,1*6E
$GPGSV,4,4,14,13,01,004,,26,08,171,,1*6D
$GPGSV,2,1,06,01,00,244,,08,57,293,,10,56,118,,26,08,171,,8*68
$GPGSV,2,2,06,27,83,109,,30,09,320,,8*66
$GPGGA,145608.00,5101.586450,N,00342.812315,E,1,08,1.3,3.5,M,47.0,M,,*6B
$GAGGA,145608.00,5101.586450,N,00342.812315,E,1,00,1.3,3.5,M,47.0,M,,*72
$GPVTG,,T,2.0,M,0.0,N,0.0,K,A*0F
$GAVTG,,T,2.0,M,0.0,N,0.0,K,A*1E
$GPRMC,145608.00,A,5101.586450,N,00342.812315,E,0.0,,210423,2.0,W,A,V*7F
$GARMC,145608.00,A,5101.586450,N,00342.812315,E,0.0,,210423,2.0,W,A,V*6E
$GPGSA,A,3,02,07,08,10,15,21,23,27,,,,,1.6,1.3,0.8,1*2D
$GAGSA,A,3,,,,,,,,,,,,,1.6,1.3,0.8,3*31
$GPGSV,4,1,14,02,18,067,17,07,11,288,21,08,57,293,24,10,56,118,14,1*65
$GPGSV,4,2,14,15,07,029,19,16,40,185,14,18,16,064,13,21,26,250,20,1*61
$GPGSV,4,3,14,23,42,061,24,27,83,109,26,30,09,320,17,01,00,244,,1*6C
$GPGSV,4,4,14,13,01,004,,26,08,171,,1*6D
$GPGSV,2,1,05,01,00,244,,08,57,293,,10,56,118,,26,08,171,,8*6B
$GPGSV,2,2,05,27,83,109,,8*5E
$GPGGA,145609.00,5101.586437,N,00342.812303,E,1,07,1.7,3.5,M,47.0,M,,*67
$GAGGA,145609.00,5101.586437,N,00342.812303,E,1,00,1.7,3.5,M,47.0,M,,*71
$GPVTG,,T,2.0,M,0.0,N,0.0,K,A*0F
$GAVTG,,T,2.0,M,0.0,N,0.0,K,A*1E
$GPRMC,145609.00,A,5101.586437,N,00342.812303,E,0.0,,210423,2.0,W,A,V*78
$GARMC,145609.00,A,5101.586437,N,00342.812303,E,0.0,,210423,2.0,W,A,V*69
$GPGSA,A,3,02,07,08,10,21,23,27,,,,,,1.9,1.7,0.8,1*22
$GAGSA,A,3,,,,,,,,,,,,,1.9,1.7,0.8,3*3A
$GPGSV,4,1,14,02,18,067,18,07,11,288,20,08,57,293,22,10,56,118,14,1*6D
$GPGSV,4,2,14,15,07,029,16,16,40,185,14,18,16,064,13,21,26,250,20,1*6E
$GPGSV,4,3,14,23,42,061,24,27,83,109,25,30,09,320,14,01,00,244,,1*6C
$GPGSV,4,4,14,13,01,004,,26,08,171,,1*6D
$GPGSV,2,1,06,01,00,244,,08,57,293,,10,56,118,,26,08,171,,8*68
$GPGSV,2,2,06,27,83,109,,30,09,320,,8*66
$GPGGA,145610.00,5101.586450,N,00342.812305,E,1,09,1.2,3.5,M,47.0,M,,*63
$GAGGA,145610.00,5101.586450,N,00342.812305,E,1,00,1.2,3.5,M,47.0,M,,*7B
$GPVTG,,T,2.0,M,0.0,N,0.0,K,A*0F
$GAVTG,,T,2.0,M,0.0,N,0.0,K,A*1E
$GPRMC,145610.00,A,5101.586450,N,00342.812305,E,0.0,,210423,2.0,W,A,V*77
$GARMC,145610.00,A,5101.586450,N,00342.812305,E,0.0,,210423,2.0,W,A,V*66
$GPGSA,A,3,02,07,08,10,15,21,23,27,30,,,,1.4,1.2,0.8,1*2D
$GAGSA,A,3,,,,,,,,,,,,,1.4,1.2,0.8,3*32
$GPGSV,4,1,14,02,18,067,18,07,11,288,23,08,57,293,23,10,56,118,14,1*6F
$GPGSV,4,2,14,15,07,029,16,16,40,185,16,18,16,064,13,21,26,250,21,1*6D
$GPGSV,4,3,14,23,42,061,23,27,83,109,23,30,09,320,14,01,00,244,,1*6D
$GPGSV,4,4,14,13,01,004,,26,08,171,,1*6D
$GPGSV,2,1,06,01,00,244,,08,57,293,,10,56,118,,26,08,171,,8*68
$GPGSV,2,2,06,27,83,109,,30,09,320,,8*66
$GPGGA,145611.00,5101.586471,N,00342.812310,E,1,10,0.9,3.5,M,47.0,M,,*67
$GAGGA,145611.00,5101.586471,N,00342.812310,E,1,00,0.9,3.5,M,47.0,M,,*77
$GPVTG,,T,2.0,M,0.0,N,0.0,K,A*0F
$GAVTG,,T,2.0,M,0.0,N,0.0,K,A*1E
$GPRMC,145611.00,A,5101.586471,N,00342.812310,E,0.0,,210423,2.0,W,A,V*71
$GARMC,145611.00,A,5101.586471,N,00342.812310,E,0.0,,210423,2.0,W,A,V*60
$GPGSA,A,3,02,07,08,10,15,16,21,23,27,30,,,1.2,0.9,0.8,1*26
$GAGSA,A,3,,,,,,,,,,,,,1.2,0.9,0.8,3*3E
$GPGSV,4,1,14,02,18,067,18,07,11,288,22,08,57,293,24,10,56,118,14,1*69
$GPGSV,4,2,14,15,07,029,16,16,40,185,16,18,16,064,13,21,26,250,23,1*6F
$GPGSV,4,3,14,23,42,061,22,27,83,109,24,30,09,320,14,01,00,244,,1*6B
$GPGSV,4,4,14,13,01,004,,26,08,171,,1*6D
$GPGSV,2,1,05,01,00,244,,08,57,293,,26,08,171,,27,83,109,,8*67
$GPGSV,2,2,05,30,09,320,,8*53
$GPGGA,145612.00,5101.586461,N,00342.812310,E,1,10,0.9,3.5,M,47.0,M,,*65
$GAGGA,145612.00,5101.586461,N,00342.812310,E,1,00,0.9,3.5,M,47.0,M,,*75
$GPVTG,,T,2.0,M,0.0,N,0.0,K,A*0F
$GAVTG,,T,2.0,M,0.0,N,0.0,K,A*1E
$GPRMC,145612.00,A,5101.586461,N,00342.812310,E,0.0,,210423,2.0,W,A,V*73
$GARMC,145612.00,A,5101.586461,N,00342.812310,E,0.0,,210423,2.0,W,A,V*62
$GPGSA,A,3,02,07,08,10,15,16,21,23,27,30,,,1.2,0.9,0.8,1*26
$GAGSA,A,3,,,,,,,,,,,,,1.2,0.9,0.8,3*3E
$GPGSV,4,1,14,02,18,067,18,07,11,288,21,08,57,293,24,10,56,118,14,1*6A
$GPGSV,4,2,14,15,07,029,16,16,40,185,16,18,16,064,13,21,26,250,23,1*6F
$GPGSV,4,3,14,23,42,061,24,27,83,109,23,30,09,320,14,01,00,244,,1*6A
$GPGSV,4,4,14,13,01,004,,26,08,171,,1*6D
$GPGSV,2,1,06,01,00,244,,08,57,293,,10,56,118,,26,08,171,,8*68
$GPGSV,2,2,06,27,83,109,,30,09,320,,8*66
$GPGGA,145613.00,5101.586466,N,00342.812320,E,1,10,0.9,3.6,M,47.0,M,,*63
$GAGGA,145613.00,5101.586466,N,00342.812320,E,1,00,0.9,3.6,M,47.0,M,,*73
$GPVTG,,T,2.0,M,0.0,N,0.0,K,A*0F
$GAVTG,,T,2.0,M,0.0,N,0.0,K,A*1E
$GPRMC,145613.00,A,5101.586466,N,00342.812320,E,0.0,,210423,2.0,W,A,V*76
$GARMC,145613.00,A,5101.586466,N,00342.812320,E,0.0,,210423,2.0,W,A,V*67
$GPGSA,A,3,02,07,08,10,15,16,21,23,27,30,,,1.2,0.9,0.8,1*26
$GAGSA,A,3,,,,,,,,,,,,,1.2,0.9,0.8,3*3E
$GPGSV,4,1,14,02,18,067,18,07,11,288,21,08,57,293,25,10,56,118,14,1*6B
$GPGSV,4,2,14,15,07,029,16,16,40,185,16,18,16,064,13,21,26,250,19,1*66
$GPGSV,4,3,14,23,42,061,25,27,83,109,24,30,09,320,14,01,00,244,,1*6C
$GPGSV,4,4,14,13,01,004,,26,08,171,,1*6D
$GPGSV,2,1,06,01,00,244,,08,57,293,,10,56,118,,26,08,171,,8*68
$GPGSV,2,2,06,27,83,109,,30,09,320,,8*66
$GPGGA,145614.00,5101.586453,N,00342.812319,E,1,09,0.9,3.5,M,47.0,M,,*63
$GAGGA,145614.00,5101.586453,N,00342.812319,E,1,00,0.9,3.5,M,47.0,M,,*7B
$GPVTG,,T,2.0,M,0.0,N,0.0,K,A*0F
$GAVTG,,T,2.0,M,0.0,N,0.0,K,A*1E
$GPRMC,145614.00,A,5101.586453,N,00342.812319,E,0.0,,210423,2.0,W,A,V*7D
$GARMC,145614.00,A,5101.586453,N,00342.812319,E,0.0,,210423,2.0,W,A,V*6C
$GPGSA,A,3,02,07,08,15,16,21,23,27,30,,,,1.2,0.9,0.8,1*27
$GAGSA,A,3,,,,,,,,,,,,,1.2,0.9,0.8,3*3E
$GPGSV,4,1,14,02,18,067,18,07,11,288,22,08,57,293,25,10,56,118,14,1*68
$GPGSV,4,2,14,15,07,029,16,16,40,185,16,18,16,064,13,21,26,250,19,1*66
$GPGSV,4,3,14,23,42,061,23,27,83,109,24,30,09,320,14,01,00,244,,1*6A
$GPGSV,4,4,14,13,01,004,,26,08,171,,1*6D
$GPGSV,1,1,04,01,00,244,,10,56,118,,26,08,171,,30,09,320,,8*60
$GPGGA,145615.00,5101.586449,N,00342.812325,E,1,09,0.9,3.6,M,47.0,M,,*65
$GAGGA,145615.00,5101.586449,N,00342.812325,E,1,00,0.9,3.6,M,47.0,M,,*7D
$GPVTG,,T,2.0,M,0.0,N,0.0,K,A*0F
$GAVTG,,T,2.0,M,0.0,N,0.0,K,A*1E
$GPRMC,145615.00,A,5101.586449,N,00342.812325,E,0.0,,210423,2.0,W,A,V*78
$GARMC,145615.00,A,5101.586449,N,00342.812325,E,0.0,,210423,2.0,W,A,V*69
$GPGSA,A,3,02,07,08,15,16,21,23,27,30,,,,1.2,0.9,0.8,1*27
$GAGSA,A,3,,,,,,,,,,,,,1.2,0.9,0.8,3*3E
$GPGSV,4,1,14,02,17,068,18,07,11,286,22,08,59,293,24,10,57,115,14,1*65
$GPGSV,4,2,14,15,07,028,17,16,37,184,16,18,14,064,13,21,28,251,19,1*6A
$GPGSV,4,3,14,23,42,060,23,27,82,113,25,30,09,319,14,01,02,246,,1*6A
$GPGSV,4,4,14,13,00,002,,26,07,171,,1*65
$GPGSV,2,1,06,01,02,246,,08,59,293,,10,57,115,,26,07,171,,8*65
$GPGSV,2,2,06,27,82,113,,30,09,319,,8*66
$GPGGA,145616.00,5101.586456,N,00342.812341,E,1,08,1.1,3.6,M,47.0,M,,*62
$GAGGA,145616.00,5101.586456,N,00342.812341,E,1,00,1.1,3.6,M,47.0,M,,*7B
$GPVTG,,T,2.0,M,0.0,N,0.0,K,A*0F
$GAVTG,,T,2.0,M,0.0,N,0.0,K,A*1E
$GPRMC,145616.00,A,5101.586456,N,00342.812341,E,0.0,,210423,2.0,W,A,V*77
$GARMC,145616.00,A,5101.586456,N,00342.812341,E,0.0,,210423,2.0,W,A,V*66
$GPGSA,A,3,02,07,08,15,16,21,23,27,,,,,1.3,1.1,0.8,1*2C
$GAGSA,A,3,,,,,,,,,,,,,1.3,1.1,0.8,3*36
$GPGSV,4,1,14,02,17,068,18,07,11,286,22,08,59,293,26,10,57,115,17,1*64
$GPGSV,4,2,14,15,07,028,17,16,37,184,16,21,28,251,19,23,42,060,24,1*61
$GPGSV,4,3,14,27,82,113,24,30,09,319,14,01,02,246,,13,00,002,,1*6B
$GPGSV,4,4,14,18,14,064,,26,07,171,,1*6B
$GPGSV,2,1,06,01,02,246,,08,59,293,,10,57,115,,26,07,171,,8*65
$GPGSV,2,2,06,27,82,113,,30,09,319,,8*66
$GPGGA,145617.00,5101.586455,N,00342.812358,E,1,08,1.3,3.7,M,47.0,M,,*6B
$GAGGA,145617.00,5101.586455,N,00342.812358,E,1,00,1.3,3.7,M,47.0,M,,*72
$GPVTG,,T,2.0,M,0.0,N,0.0,K,A*0F
$GAVTG,,T,2.0,M,0.0,N,0.0,K,A*1E
$GPRMC,145617.00,A,5101.586455,N,00342.812358,E,0.0,,210423,2.0,W,A,V*7D
$GARMC,145617.00,A,5101.586455,N,00342.812358,E,0.0,,210423,2.0,W,A,V*6C
$GPGSA,A,3,02,07,08,10,15,21,23,27,,,,,1.6,1.3,0.8,1*2D
$GAGSA,A,3,,,,,,,,,,,,,1.6,1.3,0.8,3*31
