$GNRMC,,V,,,,,,,,,,N*4D
$GNVTG,,,,,,,,,N*2E
$GNGGA,,,,,,0,00,99.99,,,,,,*56
$GNGSA,A,1,,,,,,,,,,,,,99.99,99.99,99.99*2E
$GNGSA,A,1,,,,,,,,,,,,,99.99,99.99,99.99*2E
$GPGSV,2,1,05,10,,,43,15,,,39,18,,,39,23,,,40*71
$GPGSV,2,2,05,27,,,42*7F
$GLGSV,1,1,01,,,,43*63
$GNGLL,,,,,,V,N*7A
$GNRMC,,V,,,,,,,,,,N*4D
$GNVTG,,,,,,,,,N*2E
$GNGGA,,,,,,0,00,99.99,,,,,,*56
$GNGSA,A,1,,,,,,,,,,,,,99.99,99.99,99.99*2E
$GNGSA,A,1,,,,,,,,,,,,,99.99,99.99,99.99*2E
$GPGSV,2,1,05,10,,,43,15,,,39,18,,,39,23,,,40*71
$GPGSV,2,2,05,27,,,42*7F
$GLGSV,1,1,01,,,,43*63
$GNGLL,,,,,,V,N*7A
$GNRMC,,V,,,,,,,,,,N*4D
$GNVTG,,,,,,,,,N*2E
$GNGGA,,,,,,0,00,99.99,,,,,,*56
$GNGSA,A,1,,,,,,,,,,,,,99.99,99.99,99.99*2E
$GNGSA,A,1,,,,,,,,,,,,,99.99,99.99,99.99*2E
$GPGSV,2,1,05,10,,,43,15,,,41,18,,,39,23,,,40*7E
$GPGSV,2,2,05,27,,,42*7F
$GLGSV,1,1,01,,,,43*63
$GNGLL,,,,,,V,N*7A
$GNRMC,,V,,,,,,,,,,N*4D
$GNVTG,,,,,,,,,N*2E
$GNGGA,,,,,,0,00,99.99,,,,,,*56
$GNGSA,A,1,,,,,,,,,,,,,99.99,99.99,99.99*2E
$GNGSA,A,1,,,,,,,,,,,,,99.99,99.99,99.99*2E
$GPGSV,2,1,05,10,,,42,15,,,41,18,,,39,23,,,40*7F
$GPGSV,2,2,05,27,,,42*7F
$GLGSV,1,1,01,,,,45*65
$GNGLL,,,,,,V,N*7A
$GNRMC,234505.34,V,,,,,,,,,,N*61
$GNVTG,,,,,,,,,N*2E
$GNGGA,234505.34,,,,,0,00,99.99,,,,,,*7A
$GNGSA,A,1,,,,,,,,,,,,,99.99,99.99,99.99*2E
$GNGSA,A,1,,,,,,,,,,,,,99.99,99.99,99.99*2E
$GPGSV,2,1,05,10,,,43,15,,,40,18,,,39,23,,,41*7E
$GPGSV,2,2,05,27,,,41*7C
$GLGSV,1,1,01,,,,45*65
$GNGLL,,,,,234505.34,V,N*56
$GNRMC,234506.00,V,,,,,,,,,,N*65
$GNVTG,,,,,,,,,N*2E
$GNGGA,234506.00,,,,,0,00,99.99,,,,,,*7E
$GNGSA,A,1,,,,,,,,,,,,,99.99,99.99,99.99*2E
$GNGSA,A,1,,,,,,,,,,,,,99.99,99.99,99.99*2E
$GPGSV,2,1,05,10,,,43,15,,,40,18,,,39,23,,,41*7E
$GPGSV,2,2,05,27,,,42*7F
$GLGSV,1,1,01,,,,44*64
$GNGLL,,,,,234506.00,V,N*52
$GNRMC,234507.00,V,,,,,,,,,,N*64
$GNVTG,,,,,,,,,N*2E
$GNGGA,234507.00,,,,,0,00,99.99,,,,,,*7F
$GNGSA,A,1,,,,,,,,,,,,,99.99,99.99,99.99*2E
$GNGSA,A,1,,,,,,,,,,,,,99.99,99.99,99.99*2E
$GPGSV,2,1,05,10,,,43,15,,,39,18,,,39,23,,,40*71
$GPGSV,2,2,05,27,,,42*7F
$GLGSV,1,1,01,,,,43*63
$GNGLL,,,,,234507.00,V,N*53
$GNRMC,234508.00,V,,,,,,,,,,N*6B
$GNVTG,,,,,,,,,N*2E
$GNGGA,234508.00,,,,,0,00,99.99,,,,,,*70
$GNGSA,A,1,,,,,,,,,,,,,99.99,99.99,99.99*2E
$GNGSA,A,1,,,,,,,,,,,,,99.99,99.99,99.99*2E
$GPGSV,2,1,05,10,,,43,15,,,39,18,,,38,23,,,40*70
$GPGSV,2,2,05,27,,,42*7F
$GLGSV,1,1,01,,,,45*65
$GNGLL,,,,,234508.00,V,N*5C
$GNRMC,234509.00,V,,,,,,,,,,N*6A
$GNVTG,,,,,,,,,N*2E
$GNGGA,234509.00,,,,,0,00,99.99,,,,,,*71
$GNGSA,A,1,,,,,,,,,,,,,99.99,99.99,99.99*2E
$GNGSA,A,1,,,,,,,,,,,,,99.99,99.99,99.99*2E
$GPGSV,2,1,05,10,,,43,15,,,39,18,,,39,23,,,40*71
$GPGSV,2,2,05,27,,,42*7F
$GLGSV,1,1,01,,,,44*64
$GNGLL,,,,,234509.00,V,N*5D
$GNRMC,234510.00,V,,,,,,,,,,N*62
$GNVTG,,,,,,,,,N*2E
$GNGGA,234510.00,,,,,0,00,99.99,,,,,,*79
$GNGSA,A,1,,,,,,,,,,,,,99.99,99.99,99.99*2E
$GNGSA,A,1,,,,,,,,,,,,,99.99,99.99,99.99*2E
$GPGSV,2,1,05,10,,,43,15,,,39,18,,,39,23,,,40*71
$GPGSV,2,2,05,27,,,42*7F
$GLGSV,1,1,03,69,,,45,,,,34,,,,35*69
$GNGLL,,,,,234510.00,V,N*55
$GNRMC,234511.00,V,,,,,,,,,,N*63
$GNVTG,,,,,,,,,N*2E
$GNGGA,234511.00,,,,,0,00,99.99,,,,,,*78
$GNGSA,A,1,,,,,,,,,,,,,99.99,99.99,99.99*2E
$GNGSA,A,1,,,,,,,,,,,,,99.99,99.99,99.99*2E
$GPGSV,2,1,05,10,,,43,15,,,39,18,,,39,23,,,40*71
$GPGSV,2,2,05,27,,,42*7F
$GLGSV,1,1,03,69,,,45,,,,34,,,,35*69
$GNGLL,,,,,234511.00,V,N*54
$GNRMC,234512.00,V,,,,,,,,,,N*60
$GNVTG,,,,,,,,,N*2E
$GNGGA,234512.00,,,,,0,00,99.99,,,,,,*7B
$GNGSA,A,1,,,,,,,,,,,,,99.99,99.99,99.99*2E
$GNGSA,A,1,,,,,,,,,,,,,99.99,99.99,99.99*2E
$GPGSV,2,1,05,10,,,43,15,,,40,18,,,38,23,,,39*70
$GPGSV,2,2,05,27,,,43*7E
$GLGSV,1,1,03,69,,,44,,,,36,,,,35*6A
$GNGLL,,,,,234512.00,V,N*57
$GNRMC,234513.00,V,,,,,,,,,,N*61
$GNVTG,,,,,,,,,N*2E
$GNGGA,234513.00,,,,,0,00,99.99,,,,,,*7A
$GNGSA,A,1,,,,,,,,,,,,,99.99,99.99,99.99*2E
$GNGSA,A,1,,,,,,,,,,,,,99.99,99.99,99.99*2E
$GPGSV,2,1,05,10,,,43,15,,,40,18,,,38,23,,,40*7E
$GPGSV,2,2,05,27,,,42*7F
$GLGSV,1,1,03,69,,,43,,,,36,,,,35*6D
$GNGLL,,,,,234513.00,V,N*56
$GNRMC,234514.00,V,,,,,,,,,,N*66
$GNVTG,,,,,,,,,N*2E
$GNGGA,234514.00,,,,,0,00,99.99,,,,,,*7D
$GNGSA,A,1,,,,,,,,,,,,,99.99,99.99,99.99*2E
$GNGSA,A,1,,,,,,,,,,,,,99.99,99.99,99.99*2E
$GPGSV,2,1,05,10,,,43,15,,,40,18,,,38,23,,,40*7E
$GPGSV,2,2,05,27,,,43*7E
$GLGSV,1,1,03,69,,,43,,,,36,,,,35*6D
$GNGLL,,,,,234514.00,V,N*51
$GNRMC,234515.00,V,,,,,,,050721,,,N*66
$GNVTG,,,,,,,,,N*2E
$GNGGA,234515.00,,,,,0,00,99.99,,,,,,*7C
$GNGSA,A,1,,,,,,,,,,,,,99.99,99.99,99.99*2E
$GNGSA,A,1,,,,,,,,,,,,,99.99,99.99,99.99*2E
$GPGSV,2,1,05,10,,,43,15,,,39,18,,,38,23,,,39*7E
$GPGSV,2,2,05,27,,,43*7E
$GLGSV,1,1,03,69,,,43,,,,36,,,,35*6D
$GNGLL,,,,,234515.00,V,N*50
$GNRMC,234516.00,V,,,,,,,050721,,,N*65
$GNVTG,,,,,,,,,N*2E
$GNGGA,234516.00,,,,,0,00,99.99,,,,,,*7F
$GNGSA,A,1,,,,,,,,,,,,,99.99,99.99,99.99*2E
$GNGSA,A,1,,,,,,,,,,,,,99.99,99.99,99.99*2E
$GPGSV,2,1,05,10,,,43,15,,,39,18,,,38,23,,,40*70
$GPGSV,2,2,05,27,,,43*7E
$GLGSV,1,1,03,69,,,43,,,,36,,,,35*6D
$GNGLL,,,,,234516.00,V,N*53
$GNRMC,234517.00,V,,,,,,,050721,,,N*64
$GNVTG,,,,,,,,,N*2E
$GNGGA,234517.00,,,,,0,00,99.99,,,,,,*7E
$GNGSA,A,1,,,,,,,,,,,,,99.99,99.99,99.99*2E
$GNGSA,A,1,,,,,,,,,,,,,99.99,99.99,99.99*2E
$GPGSV,2,1,05,10,,,42,15,,,40,18,,,38,23,,,39*71
$GPGSV,2,2,05,27,,,43*7E
$GLGSV,1,1,03,69,,,43,,,,36,,,,35*6D
$GNGLL,,,,,234517.00,V,N*52
$GNRMC,234518.00,V,,,,,,,050721,,,N*6B
$GNVTG,,,,,,,,,N*2E
$GNGGA,234518.00,,,,,0,00,99.99,,,,,,*71
$GNGSA,A,1,,,,,,,,,,,,,99.99,99.99,99.99*2E
$GNGSA,A,1,,,,,,,,,,,,,99.99,99.99,99.99*2E
$GPGSV,2,1,05,10,,,43,15,,,39,18,,,38,23,,,39*7E
$GPGSV,2,2,05,27,,,43*7E
$GLGSV,1,1,03,69,,,43,,,,37,,,,35*6C
$GNGLL,,,,,234518.00,V,N*5D
$GNRMC,234519.00,V,,,,,,,050721,,,N*6A
$GNVTG,,,,,,,,,N*2E
$GNGGA,234519.00,,,,,0,00,99.99,,,,,,*70
$GNGSA,A,1,,,,,,,,,,,,,99.99,99.99,99.99*2E
$GNGSA,A,1,,,,,,,,,,,,,99.99,99.99,99.99*2E
$GPGSV,2,1,06,10,,,42,15,,,39,18,,,38,23,,,40*72
$GPGSV,2,2,06,27,,,43,46,,,40*7B
$GLGSV,1,1,03,69,,,43,,,,35,,,,35*6E
$GNGLL,,,,,234519.00,V,N*5C
$GNRMC,234520.00,V,,,,,,,050721,,,N*60
$GNVTG,,,,,,,,,N*2E
$GNGGA,234520.00,,,,,0,00,99.99,,,,,,*7A
$GNGSA,A,1,,,,,,,,,,,,,99.99,99.99,99.99*2E
$GNGSA,A,1,,,,,,,,,,,,,99.99,99.99,99.99*2E
$GPGSV,2,1,06,10,,,43,15,,,39,18,,,38,23,,,40*73
$GPGSV,2,2,06,27,,,43,46,,,40*7B
$GLGSV,1,1,03,69,,,43,,,,36,,,,35*6D
$GNGLL,,,,,234520.00,V,N*56
$GNRMC,234521.00,V,,,,,,,050721,,,N*61
$GNVTG,,,,,,,,,N*2E
$GNGGA,234521.00,,,,,0,00,99.99,,,,,,*7B
$GNGSA,A,1,,,,,,,,,,,,,99.99,99.99,99.99*2E
$GNGSA,A,1,,,,,,,,,,,,,99.99,99.99,99.99*2E
$GPGSV,2,1,06,10,,,43,15,,,40,18,,,38,23,,,40*7D
$GPGSV,2,2,06,27,,,43,46,,,40*7B
$GLGSV,1,1,03,69,,,43,,,,36,,,,35*6D
$GNGLL,,,,,234521.00,V,N*57
$GNRMC,234522.00,V,,,,,,,050721,,,N*62
$GNVTG,,,,,,,,,N*2E
$GNGGA,234522.00,,,,,0,00,99.99,,,,,,*78
$GNGSA,A,1,,,,,,,,,,,,,99.99,99.99,99.99*2E
$GNGSA,A,1,,,,,,,,,,,,,99.99,99.99,99.99*2E
$GPGSV,2,1,06,10,,,43,15,,,39,18,,,38,23,,,39*7D
$GPGSV,2,2,06,27,,,43,46,,,40*7B
$GLGSV,1,1,03,69,,,43,,,,37,,,,35*6C
$GNGLL,,,,,234522.00,V,N*54
$GNRMC,234523.00,V,,,,,,,050721,,,N*63
$GNVTG,,,,,,,,,N*2E
$GNGGA,234523.00,,,,,0,00,99.99,,,,,,*79
$GNGSA,A,1,,,,,,,,,,,,,99.99,99.99,99.99*2E
$GNGSA,A,1,,,,,,,,,,,,,99.99,99.99,99.99*2E
$GPGSV,2,1,06,10,,,43,15,,,39,18,,,37,23,,,39*72
$GPGSV,2,2,06,27,,,43,46,,,40*7B
$GLGSV,1,1,03,69,,,43,,,,37,,,,36*6F
$GNGLL,,,,,234523.00,V,N*55
$GNRMC,234524.00,V,,,,,,,050721,,,N*64
$GNVTG,,,,,,,,,N*2E
$GNGGA,234524.00,,,,,0,00,99.99,,,,,,*7E
$GNGSA,A,1,,,,,,,,,,,,,99.99,99.99,99.99*2E
$GNGSA,A,1,,,,,,,,,,,,,99.99,99.99,99.99*2E
$GPGSV,2,1,06,10,,,43,15,,,39,18,,,38,23,,,39*7D
$GPGSV,2,2,06,27,,,43,46,,,40*7B
$GLGSV,1,1,03,69,,,43,,,,37,,,,36*6F
$GNGLL,,,,,234524.00,V,N*52
$GNRMC,234525.00,V,,,,,,,050721,,,N*65
$GNVTG,,,,,,,,,N*2E
$GNGGA,234525.00,,,,,0,00,99.99,,,,,,*7F
$GNGSA,A,1,,,,,,,,,,,,,99.99,99.99,99.99*2E
$GNGSA,A,1,,,,,,,,,,,,,99.99,99.99,99.99*2E
$GPGSV,2,1,06,10,,,43,15,,,39,18,,,38,23,,,40*73
$GPGSV,2,2,06,27,,,43,46,,,40*7B
$GLGSV,1,1,03,69,,,43,,,,37,,,,35*6C
$GNGLL,,,,,234525.00,V,N*53
$GNRMC,234526.00,V,,,,,,,050721,,,N*66
$GNVTG,,,,,,,,,N*2E
$GNGGA,234526.00,,,,,0,00,99.99,,,,,,*7C
$GNGSA,A,1,,,,,,,,,,,,,99.99,99.99,99.99*2E
$GNGSA,A,1,,,,,,,,,,,,,99.99,99.99,99.99*2E
$GPGSV,2,1,06,10,,,43,15,,,40,18,,,38,23,,,39*73
$GPGSV,2,2,06,27,,,43,46,,,40*7B
$GLGSV,1,1,03,69,,,43,,,,37,,,,36*6F
$GNGLL,,,,,234526.00,V,N*50
$GNRMC,234527.00,V,,,,,,,050721,,,N*67
$GNVTG,,,,,,,,,N*2E
$GNGGA,234527.00,,,,,0,00,99.99,,,,,,*7D
$GNGSA,A,1,,,,,,,,,,,,,99.99,99.99,99.99*2E
$GNGSA,A,1,,,,,,,,,,,,,99.99,99.99,99.99*2E
$GPGSV,2,1,06,10,,,43,15,,,40,18,,,38,23,,,39*73
$GPGSV,2,2,06,27,,,43,46,,,40*7B
$GLGSV,1,1,03,69,,,43,,,,36,,,,36*6E
$GNGLL,,,,,234527.00,V,N*51
$GNRMC,234528.00,V,,,,,,,050721,,,N*68
$GNVTG,,,,,,,,,N*2E
$GNGGA,234528.00,,,,,0,00,99.99,,,,,,*72
$GNGSA,A,1,,,,,,,,,,,,,99.99,99.99,99.99*2E
$GNGSA,A,1,,,,,,,,,,,,,99.99,99.99,99.99*2E
$GPGSV,2,1,06,10,,,43,15,,,40,18,,,38,23,,,39*73
$GPGSV,2,2,06,27,,,43,46,,,40*7B
$GLGSV,1,1,03,69,,,43,,,,36,,,,36*6E
$GNGLL,,,,,234528.00,V,N*5E
$GNRMC,234529.00,V,,,,,,,050721,,,N*69
$GNVTG,,,,,,,,,N*2E
$GNGGA,234529.00,,,,,0,00,99.99,,,,,,*73
$GNGSA,A,1,,,,,,,,,,,,,99.99,99.99,99.99*2E
$GNGSA,A,1,,,,,,,,,,,,,99.99,99.99,99.99*2E
$GPGSV,2,1,06,10,,,43,15,,,40,18,,,37,23,,,39*7C
$GPGSV,2,2,06,27,,,43,46,,,40*7B
$GLGSV,1,1,03,69,,,43,,,,37,,,,36*6F
$GNGLL,,,,,234529.00,V,N*5F
$GNRMC,234530.00,V,,,,,,,050721,,,N*61
$GNVTG,,,,,,,,,N*2E
$GNGGA,234530.00,,,,,0,03,2.82,,,,,,*40
$GNGSA,A,1,10,15,18,,,,,,,,,,2.99,2.82,1.00*19
$GNGSA,A,1,,,,,,,,,,,,,2.99,2.82,1.00*15
$GPGSV,2,1,06,10,50,282,43,15,35,051,40,18,69,102,38,23,,,39*40
$GPGSV,2,2,06,27,,,44,46,44,169,40*42
$GLGSV,1,1,03,69,,,43,,,,37,,,,36*6F
$GNGLL,,,,,234530.00,V,N*57
$GNRMC,234531.00,A,3933.87869,N,10506.30530,W,0.028,,050721,,,A*70
$GNVTG,,T,,M,0.028,N,0.051,K,A*33
$GNGGA,234531.00,3933.87869,N,10506.30530,W,1,05,3.20,1738.8,M,-21.7,M,,*4F
$GNGSA,A,3,10,15,18,23,27,,,,,,,,5.13,3.20,4.01*17
$GNGSA,A,3,,,,,,,,,,,,,5.13,3.20,4.01*1F
$GPGSV,2,1,07,10,50,282,43,15,35,051,40,18,69,102,38,23,71,352,39*73
$GPGSV,2,2,07,27,32,305,43,46,44,169,40,48,36,220,37*4E
$GLGSV,1,1,03,69,,,43,,,,37,,,,36*6F
$GNGLL,3933.87869,N,10506.30530,W,234531.00,A,A*62
$GNRMC,234532.00,A,3933.87876,N,10506.30537,W,0.050,,050721,,,A*75
$GNVTG,,T,,M,0.050,N,0.092,K,A*33
$GNGGA,234532.00,3933.87876,N,10506.30537,W,1,05,3.20,1738.8,M,-21.7,M,,*45
$GNGSA,A,3,10,15,18,23,27,,,,,,,,5.13,3.20,4.01*17
$GNGSA,A,3,,,,,,,,,,,,,5.13,3.20,4.01*1F
$GPGSV,2,1,07,10,50,282,43,15,35,051,40,18,69,102,38,23,71,352,39*73
$GPGSV,2,2,07,27,32,305,43,46,44,169,40,48,36,220,37*4E
$GLGSV,1,1,03,69,,,43,,,,36,,,,36*6E
$GNGLL,3933.87876,N,10506.30537,W,234532.00,A,A*68
$GNRMC,234533.00,A,3933.87887,N,10506.30536,W,0.132,,050721,,,A*7E
$GNVTG,,T,,M,0.132,N,0.244,K,A*3F
$GNGGA,234533.00,3933.87887,N,10506.30536,W,1,05,3.19,1739.0,M,-21.7,M,,*48
$GNGSA,A,3,10,15,18,23,27,,,,,,,,5.13,3.19,4.01*1D
$GNGSA,A,3,,,,,,,,,,,,,5.13,3.19,4.01*15
$GPGSV,2,1,07,10,50,282,43,15,35,051,40,18,69,102,38,23,71,352,39*73
$GPGSV,2,2,07,27,32,305,43,46,44,169,40,48,36,220,38*41
$GLGSV,1,1,03,69,,,43,,,,37,,,,36*6F
$GNGLL,3933.87887,N,10506.30536,W,234533.00,A,A*66
$GNRMC,234533.00,A,3933.87906,N,10506.30538,W,0.070,,050721,,,A*7F
$GNVTG,,T,,M,0.070,N,0.130,K,A*38
$GNGGA,234533.00,3933.87906,N,10506.30538,W,1,05,3.19,1739.3,M,-21.7,M,,*4D
$GNGSA,A,3,10,15,18,23,27,,,,,,,,5.13,3.19,4.01*1D
$GNGSA,A,3,,,,,,,,,,,,,5.13,3.19,4.01*15
$GPGSV,2,1,07,10,50,282,43,15,35,051,40,18,69,102,37,23,71,352,39*7C
$GPGSV,2,2,07,27,32,305,43,46,44,169,40,48,36,220,38*41
$GLGSV,1,1,03,69,,,42,,,,37,,,,36*6E
$GNGLL,3933.87906,N,10506.30538,W,234533.00,A,A*60
$GNRMC,234534.00,A,3933.87912,N,10506.30538,W,0.101,,050721,,,A*7A
$GNVTG,,T,,M,0.101,N,0.186,K,A*32
$GNGGA,234534.00,3933.87912,N,10506.30538,W,1,05,3.19,1739.6,M,-21.7,M,,*4A
$GNGSA,A,3,10,15,18,23,27,,,,,,,,5.13,3.19,4.01*1D
$GNGSA,A,3,,,,,,,,,,,,,5.13,3.19,4.01*15
$GPGSV,2,1,07,10,50,282,43,15,35,051,40,18,69,102,38,23,71,352,39*73
$GPGSV,2,2,07,27,32,305,43,46,44,169,40,48,36,220,38*41
$GLGSV,1,1,03,69,,,43,,,,37,,,,36*6F
$GNGLL,3933.87912,N,10506.30538,W,234534.00,A,A*62
$GNRMC,234535.00,A,3933.87922,N,10506.30540,W,0.445,,050721,,,A*72
$GNVTG,,T,,M,0.445,N,0.825,K,A*37
$GNGGA,234535.00,3933.87922,N,10506.30540,W,1,06,1.79,1740.0,M,-21.7,M,,*48
$GNGSA,A,3,10,15,18,23,27,,,,,,,,3.46,1.79,2.97*16
$GNGSA,A,3,69,,,,,,,,,,,,3.46,1.79,2.97*11
$GPGSV,2,1,07,10,50,282,43,15,35,051,40,18,69,102,38,23,71,352,39*73
$GPGSV,2,2,07,27,32,305,43,46,44,169,40,48,36,220,38*41
$GLGSV,1,1,03,69,44,241,44,,,,36,,,,36*5E
$GNGLL,3933.87922,N,10506.30540,W,234535.00,A,A*6F
$GNRMC,234536.00,A,3933.87920,N,10506.30541,W,0.090,,050721,,,A*7E
$GNVTG,,T,,M,0.090,N,0.167,K,A*34
$GNGGA,234536.00,3933.87920,N,10506.30541,W,1,06,1.79,1740.0,M,-21.7,M,,*48
$GNGSA,A,3,10,15,18,23,27,,,,,,,,3.46,1.79,2.97*16
$GNGSA,A,3,69,,,,,,,,,,,,3.46,1.79,2.97*11
$GPGSV,2,1,07,10,50,282,43,15,35,051,39,18,69,102,38,23,71,352,39*7D
$GPGSV,2,2,07,27,32,305,43,46,44,169,40,48,36,220,37*4E
$GLGSV,1,1,03,69,44,241,44,,,,37,,,,36*5F
$GNGLL,3933.87920,N,10506.30541,W,234536.00,A,A*6F
$GNRMC,234537.00,A,3933.87915,N,10506.30544,W,0.022,,050721,,,A*75
$GNVTG,,T,,M,0.022,N,0.042,K,A*3B
$GNGGA,234537.00,3933.87915,N,10506.30544,W,1,06,1.79,1740.1,M,-21.7,M,,*4B
$GNGSA,A,3,10,15,18,23,27,,,,,,,,3.46,1.79,2.97*16
$GNGSA,A,3,69,,,,,,,,,,,,3.46,1.79,2.97*11
$GPGSV,2,1,08,10,50,282,43,15,35,051,39,18,69,102,38,23,71,352,39*72
$GPGSV,2,2,08,27,32,305,43,29,10,171,,46,44,169,40,48,36,220,37*7C
$GLGSV,1,1,03,69,44,241,43,,,,37,,,,36*58
$GNGLL,3933.87915,N,10506.30544,W,234537.00,A,A*6D
$GNRMC,234538.00,A,3933.87913,N,10506.30545,W,0.395,,050721,,,A*72
$GNVTG,,T,,M,0.395,N,0.731,K,A*37
$GNGGA,234538.00,3933.87913,N,10506.30545,W,1,06,1.79,1740.2,M,-21.7,M,,*40
$GNGSA,A,3,10,15,18,23,27,,,,,,,,3.46,1.79,2.97*16
$GNGSA,A,3,69,,,,,,,,,,,,3.46,1.79,2.97*11
$GPGSV,2,1,08,10,50,282,43,15,35,051,40,18,69,102,39,23,71,352,38*7C
$GPGSV,2,2,08,27,32,305,42,29,10,171,,46,44,169,39,48,36,220,37*73
$GLGSV,1,1,03,69,44,241,45,,,,34,,,,36*5D
$GNGLL,3933.87913,N,10506.30545,W,234538.00,A,A*65
$GNRMC,234539.00,A,3933.87930,N,10506.30543,W,1.038,5.56,050721,,,A*69
$GNVTG,5.56,T,,M,1.038,N,1.922,K,A*27
$GNGGA,234539.00,3933.87930,N,10506.30543,W,1,08,1.52,1740.1,M,-21.7,M,,*42
$GNGSA,A,3,10,15,18,23,27,,,,,,,,2.90,1.52,2.48*17
$GNGSA,A,3,69,67,84,,,,,,,,,,2.90,1.52,2.48*1D
$GPGSV,2,1,08,10,50,282,43,15,35,051,42,18,69,102,31,23,71,352,40*79
$GPGSV,2,2,08,27,32,305,44,29,10,171,,46,44,169,39,48,36,220,41*74
$GLGSV,1,1,03,67,23,038,31,69,44,241,41,84,37,328,33*53
$GNGLL,3933.87930,N,10506.30543,W,234539.00,A,A*63
$GNRMC,234540.00,A,3933.87944,N,10506.30542,W,0.750,2.34,050721,,,A*6E
$GNVTG,2.34,T,,M,0.750,N,1.388,K,A*26
$GNGGA,234540.00,3933.87944,N,10506.30542,W,1,08,1.52,1739.8,M,-21.7,M,,*49
$GNGSA,A,3,10,15,18,23,27,,,,,,,,2.90,1.52,2.48*17
$GNGSA,A,3,69,67,84,,,,,,,,,,2.90,1.52,2.48*1D
$GPGSV,2,1,08,10,50,282,40,15,35,051,42,18,69,102,35,23,71,352,40*7E
$GPGSV,2,2,08,27,32,305,42,29,10,171,,46,44,169,38,48,36,220,31*74
$GLGSV,1,1,03,67,23,038,32,69,44,241,43,84,37,328,32*53
$GNGLL,3933.87944,N,10506.30542,W,234540.00,A,A*6F
$GNRMC,234541.00,A,3933.87934,N,10506.30545,W,0.011,,050721,,,A*76
$GNVTG,,T,,M,0.011,N,0.021,K,A*3E
$GNGGA,234541.00,3933.87934,N,10506.30545,W,1,08,1.52,1739.5,M,-21.7,M,,*45
$GNGSA,A,3,10,15,18,23,27,,,,,,,,2.90,1.52,2.48*17
$GNGSA,A,3,69,67,84,,,,,,,,,,2.90,1.52,2.48*1D
$GPGSV,2,1,08,10,50,282,37,15,35,051,43,18,69,102,36,23,71,352,39*72
$GPGSV,2,2,08,27,32,305,43,29,10,171,,46,44,169,38,48,36,220,32*76
$GLGSV,1,1,03,67,23,038,32,69,44,241,43,84,37,328,30*51
$GNGLL,3933.87934,N,10506.30545,W,234541.00,A,A*6E
$GNRMC,234542.00,A,3933.87933,N,10506.30545,W,0.010,,050721,,,A*73
$GNVTG,,T,,M,0.010,N,0.018,K,A*35
$GNGGA,234542.00,3933.87933,N,10506.30545,W,1,08,1.52,1739.5,M,-21.7,M,,*41
$GNGSA,A,3,10,15,18,23,27,,,,,,,,2.90,1.52,2.48*17
$GNGSA,A,3,69,67,84,,,,,,,,,,2.90,1.52,2.48*1D
$GPGSV,2,1,08,10,50,282,40,15,35,051,43,18,69,102,36,23,71,352,38*73
$GPGSV,2,2,08,27,32,305,43,29,10,171,,46,44,169,39,48,36,220,31*74
$GLGSV,1,1,03,67,23,038,32,69,44,241,42,84,37,328,31*51
$GNGLL,3933.87933,N,10506.30545,W,234542.00,A,A*6A
$GNRMC,234543.00,A,3933.87919,N,10506.30548,W,0.023,,050721,,,A*77
$GNVTG,,T,,M,0.023,N,0.043,K,A*3B
$GNGGA,234543.00,3933.87919,N,10506.30548,W,1,08,1.52,1739.3,M,-21.7,M,,*43
$GNGSA,A,3,10,15,18,23,27,,,,,,,,2.90,1.52,2.48*17
$GNGSA,A,3,69,67,84,,,,,,,,,,2.90,1.52,2.48*1D
$GPGSV,2,1,08,10,50,282,38,15,35,051,43,18,69,102,36,23,71,352,39*7D
$GPGSV,2,2,08,27,32,305,43,29,10,171,,46,44,169,39,48,36,220,30*75
$GLGSV,1,1,03,67,23,038,33,69,44,241,42,84,37,328,30*51
$GNGLL,3933.87919,N,10506.30548,W,234543.00,A,A*6E
$GNRMC,234544.00,A,3933.87904,N,10506.30551,W,0.028,,050721,,,A*7F
$GNVTG,,T,,M,0.028,N,0.052,K,A*30
$GNGGA,234544.00,3933.87904,N,10506.30551,W,1,08,1.52,1739.0,M,-21.7,M,,*43
$GNGSA,A,3,10,15,18,23,27,,,,,,,,2.90,1.52,2.48*17
$GNGSA,A,3,69,67,84,,,,,,,,,,2.90,1.52,2.48*1D
$GPGSV,2,1,08,10,50,282,38,15,35,051,43,18,69,102,36,23,71,352,39*7D
$GPGSV,2,2,08,27,32,305,43,29,10,171,,46,44,169,39,48,36,220,30*75
$GLGSV,1,1,03,67,23,038,33,69,44,241,43,84,37,328,30*50
$GNGLL,3933.87904,N,10506.30551,W,234544.00,A,A*6D
$GNRMC,234545.00,A,3933.87886,N,10506.30553,W,0.010,,050721,,,A*7C
$GNVTG,,T,,M,0.010,N,0.019,K,A*34
$GNGGA,234545.00,3933.87886,N,10506.30553,W,1,08,1.52,1738.7,M,-21.7,M,,*4D
$GNGSA,A,3,10,15,18,23,27,,,,,,,,2.90,1.52,2.48*17
$GNGSA,A,3,69,67,84,,,,,,,,,,2.90,1.52,2.48*1D
$GPGSV,2,1,08,10,50,282,37,15,35,051,43,18,69,102,36,23,71,352,39*72
$GPGSV,2,2,08,27,32,305,43,29,10,171,,46,44,169,39,48,36,220,30*75
$GLGSV,1,1,03,67,23,038,33,69,44,241,42,84,37,328,30*51
$GNGLL,3933.87886,N,10506.30553,W,234545.00,A,A*65
$GNRMC,234546.00,A,3933.87869,N,10506.30556,W,0.027,,050721,,,A*7F
$GNVTG,,T,,M,0.027,N,0.050,K,A*3D
$GNGGA,234546.00,3933.87869,N,10506.30556,W,1,08,1.52,1738.4,M,-21.7,M,,*49
$GNGSA,A,3,10,15,18,23,27,,,,,,,,2.90,1.52,2.48*17
$GNGSA,A,3,69,67,84,,,,,,,,,,2.90,1.52,2.48*1D
$GPGSV,2,1,08,10,50,282,35,15,35,051,43,18,69,102,36,23,71,352,39*70
$GPGSV,2,2,08,27,32,305,44,29,10,171,,46,44,169,41,48,36,220,31*7C
$GLGSV,1,1,03,67,23,038,33,69,44,241,42,84,37,328,29*59
$GNGLL,3933.87869,N,10506.30556,W,234546.00,A,A*62
$GNRMC,234547.00,A,3933.87860,N,10506.30559,W,0.040,,050721,,,A*79
$GNVTG,,T,,M,0.040,N,0.075,K,A*3B
$GNGGA,234547.00,3933.87860,N,10506.30559,W,1,08,1.52,1738.4,M,-21.7,M,,*4E
$GNGSA,A,3,10,15,18,23,27,,,,,,,,2.90,1.52,2.48*17
$GNGSA,A,3,69,67,84,,,,,,,,,,2.90,1.52,2.48*1D
$GPGSV,2,1,08,10,50,282,37,15,35,051,42,18,69,102,35,23,71,352,37*7E
$GPGSV,2,2,08,27,32,305,43,29,10,171,,46,44,169,39,48,36,220,31*74
$GLGSV,1,1,03,67,23,038,33,69,44,241,42,84,37,328,30*51
$GNGLL,3933.87860,N,10506.30559,W,234547.00,A,A*65
$GNRMC,234548.00,A,3933.87846,N,10506.30561,W,0.064,,050721,,,A*7F
$GNVTG,,T,,M,0.064,N,0.118,K,A*37
$GNGGA,234548.00,3933.87846,N,10506.30561,W,1,08,1.52,1738.1,M,-21.7,M,,*4B
$GNGSA,A,3,10,15,18,23,27,,,,,,,,2.90,1.52,2.48*17
$GNGSA,A,3,69,67,84,,,,,,,,,,2.90,1.52,2.48*1D
$GPGSV,2,1,08,10,50,282,35,15,35,051,43,18,69,102,34,23,71,352,40*7C
$GPGSV,2,2,08,27,32,305,43,29,10,171,,46,44,169,40,48,36,220,31*7A
$GLGSV,1,1,03,67,23,038,33,69,44,241,42,84,37,328,30*51
$GNGLL,3933.87846,N,10506.30561,W,234548.00,A,A*65
$GNRMC,234549.00,A,3933.87839,N,10506.30563,W,0.011,,050721,,,A*76
$GNVTG,,T,,M,0.011,N,0.021,K,A*3E
$GNGGA,234549.00,3933.87839,N,10506.30563,W,1,08,1.52,1738.0,M,-21.7,M,,*41
$GNGSA,A,3,10,15,18,23,27,,,,,,,,2.90,1.52,2.48*17
$GNGSA,A,3,69,67,84,,,,,,,,,,2.90,1.52,2.48*1D
$GPGSV,2,1,08,10,50,282,37,15,35,051,43,18,69,102,34,23,71,352,37*7E
$GPGSV,2,2,08,27,32,305,42,29,10,171,,46,44,169,40,48,36,220,31*7B
$GLGSV,1,1,03,67,23,038,34,69,44,241,42,84,37,328,30*56
$GNGLL,3933.87839,N,10506.30563,W,234549.00,A,A*6E
$GNRMC,234550.00,A,3933.87833,N,10506.30564,W,0.011,,050721,,,A*73
$GNVTG,,T,,M,0.011,N,0.021,K,A*3E
$GNGGA,234550.00,3933.87833,N,10506.30564,W,1,08,1.52,1737.9,M,-21.7,M,,*42
$GNGSA,A,3,10,15,18,23,27,,,,,,,,2.90,1.52,2.48*17
$GNGSA,A,3,69,67,84,,,,,,,,,,2.90,1.52,2.48*1D
$GPGSV,2,1,08,10,50,282,37,15,35,051,43,18,69,102,34,23,71,352,38*71
$GPGSV,2,2,08,27,32,305,42,29,10,171,,46,44,169,40,48,36,220,30*7A
$GLGSV,1,1,03,67,23,038,34,69,44,241,42,84,37,328,30*56
$GNGLL,3933.87833,N,10506.30564,W,234550.00,A,A*6B
$GNRMC,234551.00,A,3933.87824,N,10506.30564,W,0.017,,050721,,,A*72
$GNVTG,,T,,M,0.017,N,0.031,K,A*39
$GNGGA,234551.00,3933.87824,N,10506.30564,W,1,08,1.52,1737.5,M,-21.7,M,,*49
$GNGSA,A,3,10,15,18,23,27,,,,,,,,2.90,1.52,2.48*17
$GNGSA,A,3,69,67,84,,,,,,,,,,2.90,1.52,2.48*1D
$GPGSV,2,1,08,10,50,282,38,15,35,051,42,18,69,102,34,23,71,352,40*70
$GPGSV,2,2,08,27,32,305,43,29,10,171,,46,44,169,39,48,36,220,31*74
$GLGSV,1,1,03,67,23,038,33,69,44,241,42,84,37,328,30*51
$GNGLL,3933.87824,N,10506.30564,W,234551.00,A,A*6C
$GNRMC,234552.00,A,3933.87821,N,10506.30564,W,0.045,,050721,,,A*73
$GNVTG,,T,,M,0.045,N,0.083,K,A*37
$GNGGA,234552.00,3933.87821,N,10506.30564,W,1,08,1.52,1737.5,M,-21.7,M,,*4F
$GNGSA,A,3,10,15,18,23,27,,,,,,,,2.90,1.52,2.48*17
$GNGSA,A,3,69,67,84,,,,,,,,,,2.90,1.52,2.48*1D
$GPGSV,2,1,08,10,50,282,38,15,35,051,42,18,69,102,35,23,71,352,38*7E
$GPGSV,2,2,08,27,32,305,43,29,10,171,,46,44,169,39,48,36,220,31*74
$GLGSV,1,1,03,67,23,038,34,69,44,241,42,84,37,328,30*56
$GNGLL,3933.87821,N,10506.30564,W,234552.00,A,A*6A
$GNRMC,234553.00,A,3933.87815,N,10506.30562,W,0.053,,050721,,,A*74
$GNVTG,,T,,M,0.053,N,0.098,K,A*3A
$GNGGA,234553.00,3933.87815,N,10506.30562,W,1,08,1.52,1737.2,M,-21.7,M,,*48
$GNGSA,A,3,10,15,18,23,27,,,,,,,,2.90,1.52,2.48*17
$GNGSA,A,3,69,67,84,,,,,,,,,,2.90,1.52,2.48*1D
$GPGSV,2,1,08,10,50,282,39,15,35,051,42,18,69,102,35,23,71,352,39*7E
$GPGSV,2,2,08,27,32,305,42,29,10,171,,46,44,169,39,48,36,220,30*74
$GLGSV,1,1,03,67,23,038,32,69,44,241,42,84,37,328,30*50
$GNGLL,3933.87815,N,10506.30562,W,234553.00,A,A*6A
$GNRMC,234554.00,A,3933.87811,N,10506.30561,W,0.018,,050721,,,A*7B
$GNVTG,,T,,M,0.018,N,0.033,K,A*34
$GNGGA,234554.00,3933.87811,N,10506.30561,W,1,08,1.52,1737.1,M,-21.7,M,,*4B
$GNGSA,A,3,10,15,18,23,27,,,,,,,,2.91,1.52,2.48*16
$GNGSA,A,3,69,67,84,,,,,,,,,,2.91,1.52,2.48*1C
$GPGSV,2,1,08,10,50,282,39,15,35,051,42,18,69,102,35,23,71,352,38*7F
$GPGSV,2,2,08,27,32,305,43,29,10,171,,46,44,169,40,48,36,220,28*72
$GLGSV,1,1,03,67,23,038,31,69,44,241,43,84,37,328,30*52
$GNGLL,3933.87811,N,10506.30561,W,234554.00,A,A*6A
$GNRMC,234555.00,A,3933.87810,N,10506.30560,W,0.032,,050721,,,A*72
$GNVTG,,T,,M,0.032,N,0.059,K,A*30
$GNGGA,234555.00,3933.87810,N,10506.30560,W,1,08,1.52,1737.0,M,-21.7,M,,*4B
$GNGSA,A,3,10,15,18,23,27,,,,,,,,2.91,1.52,2.48*16
$GNGSA,A,3,69,67,84,,,,,,,,,,2.91,1.52,2.48*1C
$GPGSV,2,1,08,10,50,282,39,15,35,051,42,18,69,102,36,23,71,352,38*7C
$GPGSV,2,2,08,27,32,305,43,29,10,171,,46,44,169,40,48,36,220,28*72
$GLGSV,1,1,03,67,23,038,30,69,44,241,43,84,37,328,30*53
$GNGLL,3933.87810,N,10506.30560,W,234555.00,A,A*6B
$GNRMC,234556.00,A,3933.87806,N,10506.30560,W,0.022,,050721,,,A*77
$GNVTG,,T,,M,0.022,N,0.041,K,A*38
$GNGGA,234556.00,3933.87806,N,10506.30560,W,1,08,1.52,1736.9,M,-21.7,M,,*47
$GNGSA,A,3,10,15,18,23,27,,,,,,,,2.91,1.52,2.48*16
$GNGSA,A,3,69,67,84,,,,,,,,,,2.91,1.52,2.48*1C
$GPGSV,2,1,08,10,50,282,37,15,35,051,42,18,69,102,36,23,71,352,38*72
$GPGSV,2,2,08,27,32,305,43,29,10,171,,46,44,169,40,48,36,220,28*72
$GLGSV,1,1,03,67,23,038,29,69,44,241,42,84,37,328,30*5A
$GNGLL,3933.87806,N,10506.30560,W,234556.00,A,A*6F
$GNRMC,234557.00,A,3933.87802,N,10506.30559,W,0.013,,050721,,,A*7A
$GNVTG,,T,,M,0.013,N,0.024,K,A*39
$GNGGA,234557.00,3933.87802,N,10506.30559,W,1,08,1.52,1736.8,M,-21.7,M,,*49
$GNGSA,A,3,10,15,18,23,27,,,,,,,,2.91,1.52,2.48*16
$GNGSA,A,3,69,67,84,,,,,,,,,,2.91,1.52,2.48*1C
$GPGSV,2,1,08,10,50,282,37,15,35,051,43,18,69,102,37,23,71,352,38*72
$GPGSV,2,2,08,27,32,305,43,29,10,171,,46,44,169,40,48,36,220,29*73
$GLGSV,1,1,03,67,23,038,28,69,44,241,42,84,37,328,30*5B
$GNGLL,3933.87802,N,10506.30559,W,234557.00,A,A*60
$GNRMC,234558.00,A,3933.87793,N,10506.30555,W,0.049,,050721,,,A*71
$GNVTG,,T,,M,0.049,N,0.090,K,A*39
$GNGGA,234558.00,3933.87793,N,10506.30555,W,1,08,1.52,1736.4,M,-21.7,M,,*41
$GNGSA,A,3,10,15,18,23,27,,,,,,,,2.91,1.52,2.48*16
$GNGSA,A,3,69,67,84,,,,,,,,,,2.91,1.52,2.48*1C
$GPGSV,3,1,09,10,51,283,39,15,35,051,42,17,,,21,18,69,102,37*40
$GPGSV,3,2,09,23,71,352,39,27,32,305,42,29,10,171,,46,44,169,40*79
$GPGSV,3,3,09,48,36,220,29*42
$GLGSV,1,1,03,67,23,038,31,69,44,241,42,84,37,328,30*53
$GNGLL,3933.87793,N,10506.30555,W,234558.00,A,A*64
$GNRMC,234559.00,A,3933.87791,N,10506.30551,W,0.120,,050721,,,A*78
$GNVTG,,T,,M,0.120,N,0.223,K,A*3D
$GNGGA,234559.00,3933.87791,N,10506.30551,W,1,08,1.52,1736.0,M,-21.7,M,,*42
$GNGSA,A,3,10,15,18,23,27,,,,,,,,2.91,1.52,2.48*16
$GNGSA,A,3,69,67,84,,,,,,,,,,2.91,1.52,2.48*1C
$GPGSV,2,1,08,10,51,283,40,15,35,050,42,18,69,102,37,23,71,352,39*73
$GPGSV,2,2,08,27,32,305,42,29,10,171,,46,44,169,39,48,36,220,29*7C
$GLGSV,1,1,03,67,23,038,30,69,44,241,42,84,37,328,31*53
$GNGLL,3933.87791,N,10506.30551,W,234559.00,A,A*63
$GNRMC,234600.00,A,3933.87827,N,10506.30559,W,1.907,351.22,050721,,,A*68
$GNVTG,351.22,T,,M,1.907,N,3.532,K,A*2C
$GNGGA,234600.00,3933.87827,N,10506.30559,W,1,08,1.52,1735.9,M,-21.7,M,,*4D
$GNGSA,A,3,10,15,18,23,27,,,,,,,,2.91,1.52,2.48*16
$GNGSA,A,3,69,67,84,,,,,,,,,,2.91,1.52,2.48*1C
$GPGSV,3,1,09,10,51,283,38,13,,,21,15,35,050,40,18,68,103,37*46
$GPGSV,3,2,09,23,71,352,38,27,32,305,40,29,10,171,,46,44,169,45*7F
$GPGSV,3,3,09,48,36,220,42*4F
$GLGSV,1,1,03,67,23,038,34,69,44,241,43,84,37,328,33*54
$GNGLL,3933.87827,N,10506.30559,W,234600.00,A,A*66
$GNRMC,234601.00,A,3933.87894,N,10506.30591,W,2.504,338.98,050721,,,A*67
$GNVTG,338.98,T,,M,2.504,N,4.637,K,A*2F
$GNGGA,234601.00,3933.87894,N,10506.30591,W,1,08,1.52,1736.0,M,-21.7,M,,*4A
$GNGSA,A,3,10,15,18,23,27,,,,,,,,2.91,1.52,2.48*16
$GNGSA,A,3,69,67,84,,,,,,,,,,2.91,1.52,2.48*1C
$GPGSV,3,1,10,10,51,283,43,13,,,19,15,35,050,44,18,68,103,39*43
$GPGSV,3,2,10,23,71,353,35,27,32,305,29,29,10,171,,46,44,169,38*7E
$GPGSV,3,3,10,48,36,220,39,51,44,183,38*7E
$GLGSV,1,1,03,67,23,038,28,69,44,241,41,84,37,328,29*50
$GNGLL,3933.87894,N,10506.30591,W,234601.00,A,A*6B
$GNRMC,234602.00,A,3933.87965,N,10506.30676,W,4.074,322.64,050721,,,A*6D
$GNVTG,322.64,T,,M,4.074,N,7.544,K,A*27
$GNGGA,234602.00,3933.87965,N,10506.30676,W,1,08,1.52,1735.5,M,-21.7,M,,*4A
$GNGSA,A,3,10,15,18,23,27,,,,,,,,2.91,1.52,2.48*16
$GNGSA,A,3,69,67,84,,,,,,,,,,2.91,1.52,2.48*1C
$GPGSV,3,1,09,10,51,283,42,15,35,050,41,18,68,103,34,23,71,353,37*7E
$GPGSV,3,2,09,27,32,304,43,29,10,171,,46,44,169,44,48,36,220,39*77
$GPGSV,3,3,09,51,44,183,41*4B
$GLGSV,1,1,03,67,23,038,32,69,44,241,41,84,37,328,31*52
$GNGLL,3933.87965,N,10506.30676,W,234602.00,A,A*6D
$GNRMC,234603.00,A,3933.88013,N,10506.30845,W,5.583,311.57,050721,,,A*69
$GNVTG,311.57,T,,M,5.583,N,10.341,K,A*1E
$GNGGA,234603.00,3933.88013,N,10506.30845,W,1,08,1.52,1735.8,M,-21.7,M,,*4F
$GNGSA,A,3,10,15,18,23,27,,,,,,,,2.91,1.52,2.48*16
$GNGSA,A,3,69,67,84,,,,,,,,,,2.91,1.52,2.48*1C
$GPGSV,3,1,10,10,51,283,42,15,35,050,41,18,68,103,31,23,71,353,26*73
$GPGSV,3,2,10,24,,,27,27,32,304,38,29,10,171,,46,44,169,41*46
$GPGSV,3,3,10,48,36,220,42,51,44,183,37*7D
$GLGSV,1,1,03,67,23,038,42,69,44,241,29,84,37,328,30*5A
$GNGLL,3933.88013,N,10506.30845,W,234603.00,A,A*65
$GNRMC,234604.00,A,3933.88047,N,10506.31081,W,7.349,283.77,050721,,,A*64
$GNVTG,283.77,T,,M,7.349,N,13.610,K,A*16
$GNGGA,234604.00,3933.88047,N,10506.31081,W,1,08,1.52,1735.8,M,-21.7,M,,*48
$GNGSA,A,3,10,15,18,23,27,,,,,,,,2.91,1.52,2.48*16
$GNGSA,A,3,69,67,84,,,,,,,,,,2.91,1.52,2.48*1C
$GPGSV,3,1,10,10,51,283,44,15,35,050,36,18,68,103,35,23,71,353,32*74
$GPGSV,3,2,10,24,,,27,27,32,304,39,29,10,171,,46,44,169,37*46
$GPGSV,3,3,10,48,36,220,35,51,44,183,40*7D
$GLGSV,1,1,03,67,23,038,33,69,44,241,41,84,37,328,22*51
$GNGLL,3933.88047,N,10506.31081,W,234604.00,A,A*62
$GNRMC,234605.00,A,3933.88102,N,10506.31350,W,8.013,281.05,050721,,,A*6E
$GNVTG,281.05,T,,M,8.013,N,14.839,K,A*10
$GNGGA,234605.00,3933.88102,N,10506.31350,W,1,08,1.52,1736.0,M,-21.7,M,,*4D
$GNGSA,A,3,10,15,18,23,27,,,,,,,,2.91,1.52,2.48*16
$GNGSA,A,3,69,67,84,,,,,,,,,,2.91,1.52,2.48*1C
$GPGSV,3,1,11,10,51,283,42,13,,,23,15,35,050,38,18,68,103,36*4E
$GPGSV,3,2,11,23,71,353,26,24,,,28,27,32,304,35,29,10,171,*4A
$GPGSV,3,3,11,46,44,169,35,48,36,220,35,51,44,183,38*49
$GLGSV,1,1,03,67,23,038,26,69,44,241,43,84,37,328,24*51
$GNGLL,3933.88102,N,10506.31350,W,234605.00,A,A*6C
$GNRMC,234606.00,A,3933.88137,N,10506.31633,W,8.184,278.19,050721,,,A*6F
$GNVTG,278.19,T,,M,8.184,N,15.157,K,A*14
$GNGGA,234606.00,3933.88137,N,10506.31633,W,1,08,1.52,1736.1,M,-21.7,M,,*49
$GNGSA,A,3,10,15,18,23,27,,,,,,,,2.91,1.52,2.48*16
$GNGSA,A,3,69,67,84,,,,,,,,,,2.91,1.52,2.48*1C
$GPGSV,3,1,11,10,51,283,44,13,,,21,15,35,050,38,18,68,103,34*48
$GPGSV,3,2,11,23,71,353,26,24,,,31,27,32,304,34,29,10,171,*43
$GPGSV,3,3,11,46,44,169,33,48,36,220,32,51,44,183,39*49
$GLGSV,1,1,03,67,23,038,35,69,44,241,44,84,37,328,25*55
$GNGLL,3933.88137,N,10506.31633,W,234606.00,A,A*69
$GNRMC,234607.00,A,3933.88155,N,10506.31905,W,7.587,274.77,050721,,,A*6C
$GNVTG,274.77,T,,M,7.587,N,14.051,K,A*1E
$GNGGA,234607.00,3933.88155,N,10506.31905,W,1,08,1.52,1736.1,M,-21.7,M,,*46
$GNGSA,A,3,10,15,18,23,27,,,,,,,,2.91,1.52,2.48*16
$GNGSA,A,3,69,67,84,,,,,,,,,,2.91,1.52,2.48*1C
$GPGSV,3,1,11,10,51,283,41,13,,,19,15,35,050,38,18,68,103,32*40
$GPGSV,3,2,11,23,71,353,35,24,,,31,27,32,304,37,29,10,171,22*42
$GPGSV,3,3,11,46,44,169,35,48,36,220,30,51,44,183,36*42
$GLGSV,1,1,03,67,23,038,32,69,44,241,45,84,37,328,25*53
$GNGLL,3933.88155,N,10506.31905,W,234607.00,A,A*66
$GNRMC,234608.00,A,3933.88116,N,10506.32174,W,7.815,269.30,050721,,,A*60
$GNVTG,269.30,T,,M,7.815,N,14.473,K,A*13
$GNGGA,234608.00,3933.88116,N,10506.32174,W,1,08,1.52,1735.9,M,-21.7,M,,*48
$GNGSA,A,3,10,15,18,23,27,,,,,,,,2.91,1.52,2.48*16
$GNGSA,A,3,69,67,84,,,,,,,,,,2.91,1.52,2.48*1C
$GPGSV,3,1,11,10,51,283,36,13,,,21,15,35,050,36,18,68,103,39*4E
$GPGSV,3,2,11,23,71,353,35,24,,,31,27,32,304,22,29,10,171,21*45
$GPGSV,3,3,11,46,44,169,27,48,36,220,32,51,44,183,34*41
$GLGSV,2,1,05,67,23,038,36,69,44,241,41,84,37,328,24,,,,36*52
$GLGSV,2,2,05*60
$GNGLL,3933.88116,N,10506.32174,W,234608.00,A,A*63
$GNRMC,234609.00,A,3933.88007,N,10506.32461,W,9.254,249.52,050721,,,A*66
$GNVTG,249.52,T,,M,9.254,N,17.139,K,A*1C
$GNGGA,234609.00,3933.88007,N,10506.32461,W,1,08,1.52,1736.0,M,-21.7,M,,*43
$GNGSA,A,3,10,15,18,23,27,,,,,,,,2.91,1.52,2.48*16
$GNGSA,A,3,69,67,84,,,,,,,,,,2.91,1.52,2.48*1C
$GPGSV,3,1,11,10,51,283,28,13,,,21,15,35,050,36,18,68,103,38*40
$GPGSV,3,2,11,23,71,353,35,24,,,37,27,32,304,35,29,10,171,29*4D
$GPGSV,3,3,11,32,,,35,46,44,169,41,48,36,220,36*7B
$GLGSV,2,1,05,67,23,038,38,69,44,241,41,84,37,328,23,,,,40*5A
$GLGSV,2,2,05,,,,40*64
$GNGLL,3933.88007,N,10506.32461,W,234609.00,A,A*62
$GNRMC,234610.00,A,3933.87816,N,10506.32703,W,9.937,230.06,050721,,,A*6F
$GNVTG,230.06,T,,M,9.937,N,18.403,K,A*1E
$GNGGA,234610.00,3933.87816,N,10506.32703,W,1,08,1.52,1735.5,M,-21.7,M,,*4D
$GNGSA,A,3,10,15,18,23,27,,,,,,,,2.91,1.52,2.48*16
$GNGSA,A,3,69,67,84,,,,,,,,,,2.91,1.52,2.48*1C
$GPGSV,3,1,11,10,51,283,38,13,,,19,15,35,050,37,18,68,103,33*40
$GPGSV,3,2,11,23,71,353,36,24,,,39,27,32,304,37,29,10,171,30*4A
$GPGSV,3,3,11,32,,,29,46,44,169,43,48,36,220,40*75
$GLGSV,2,1,05,67,23,038,29,69,44,241,42,84,37,328,24,,,,30*59
$GLGSV,2,2,05*60
$GNGLL,3933.87816,N,10506.32703,W,234610.00,A,A*6A
$GNRMC,234611.00,A,3933.87541,N,10506.32855,W,11.148,210.26,050721,,,A*54
$GNVTG,210.26,T,,M,11.148,N,20.647,K,A*2E
$GNGGA,234611.00,3933.87541,N,10506.32855,W,1,08,1.52,1735.6,M,-21.7,M,,*4C
$GNGSA,A,3,10,15,18,23,27,,,,,,,,2.91,1.52,2.48*16
$GNGSA,A,3,69,67,84,,,,,,,,,,2.91,1.52,2.48*1C
$GPGSV,3,1,11,10,51,283,38,13,,,18,15,35,050,39,18,68,103,41*4A
$GPGSV,3,2,11,23,71,353,29,24,,,27,27,32,304,32,29,10,171,36*48
$GPGSV,3,3,11,32,,,24,46,44,169,32,48,36,220,29*71
$GLGSV,2,1,05,67,23,038,31,69,44,241,29,84,37,328,27,,,,34*5A
$GLGSV,2,2,05,,,,34*67
$GNGLL,3933.87541,N,10506.32855,W,234611.00,A,A*68
$GNRMC,234612.00,A,3933.87221,N,10506.32961,W,11.819,197.69,050721,,,A*5A
$GNVTG,197.69,T,,M,11.819,N,21.889,K,A*29
$GNGGA,234612.00,3933.87221,N,10506.32961,W,1,08,1.52,1735.3,M,-21.7,M,,*4D
$GNGSA,A,3,10,15,18,23,27,,,,,,,,2.91,1.52,2.48*16
$GNGSA,A,3,69,67,84,,,,,,,,,,2.91,1.52,2.48*1C
$GPGSV,3,1,10,10,51,283,30,13,,,18,15,35,050,41,18,68,103,42*4F
$GPGSV,3,2,10,23,71,353,34,27,32,304,34,29,10,171,36,32,,,31*43
$GPGSV,3,3,10,46,44,169,35,48,36,220,34*7C
$GLGSV,2,1,05,67,23,038,37,69,44,241,38,84,37,328,26,,,,35*5C
$GLGSV,2,2,05,,,,35*66
$GNGLL,3933.87221,N,10506.32961,W,234612.00,A,A*6C
$GNRMC,234613.00,A,3933.86871,N,10506.33023,W,13.110,187.53,050721,,,A*51
$GNVTG,187.53,T,,M,13.110,N,24.280,K,A*25
$GNGGA,234613.00,3933.86871,N,10506.33023,W,1,08,1.52,1734.7,M,-21.7,M,,*49
$GNGSA,A,3,10,15,18,23,27,,,,,,,,2.91,1.52,2.48*16
$GNGSA,A,3,69,67,84,,,,,,,,,,2.91,1.52,2.48*1C
$GPGSV,3,1,10,08,08,325,,10,51,283,37,13,,,18,15,35,050,40*4E
$GPGSV,3,2,10,18,68,103,42,23,71,353,36,27,32,304,34,29,10,171,32*75
$GPGSV,3,3,10,32,,,32,48,36,220,34*46
$GLGSV,2,1,06,67,23,038,28,69,44,241,28,84,37,328,24,,,,34*53
$GLGSV,2,2,06,,,,34,,,,43*63
$GNGLL,3933.86871,N,10506.33023,W,234613.00,A,A*6D
$GNRMC,234614.00,A,3933.86515,N,10506.33073,W,13.135,186.09,050721,,,A*55
$GNVTG,186.09,T,,M,13.135,N,24.326,K,A*21
$GNGGA,234614.00,3933.86515,N,10506.33073,W,1,08,1.52,1735.1,M,-21.7,M,,*43
$GNGSA,A,3,10,15,18,23,27,,,,,,,,2.91,1.52,2.48*16
$GNGSA,A,3,69,67,84,,,,,,,,,,2.91,1.52,2.48*1C
$GPGSV,3,1,12,08,08,325,17,10,51,283,29,13,,,27,15,35,050,34*4A
$GPGSV,3,2,12,18,68,103,42,23,71,353,35,24,,,23,27,32,304,33*48
$GPGSV,3,3,12,29,10,171,32,32,,,35,48,36,220,35,51,44,183,42*46
$GLGSV,2,1,06,67,23,038,35,69,44,241,33,84,37,328,23,,,,33*55
$GLGSV,2,2,06,,,,33,,,,43*64
$GNGLL,3933.86515,N,10506.33073,W,234614.00,A,A*60
$GNRMC,234615.00,A,3933.86174,N,10506.33128,W,12.115,186.52,050721,,,A*55
$GNVTG,186.52,T,,M,12.115,N,22.436,K,A*2C
$GNGGA,234615.00,3933.86174,N,10506.33128,W,1,08,1.52,1734.7,M,-21.7,M,,*49
$GNGSA,A,3,10,15,18,23,27,,,,,,,,2.91,1.52,2.48*16
$GNGSA,A,3,69,67,84,,,,,,,,,,2.91,1.52,2.48*1C
$GPGSV,3,1,12,08,08,325,18,10,51,283,36,13,,,16,15,35,050,41*4B
$GPGSV,3,2,12,18,68,103,41,23,71,353,37,24,,,30,27,32,304,28*41
$GPGSV,3,3,12,29,10,171,27,32,,,30,48,36,220,35,51,44,183,43*46
$GLGSV,2,1,06,67,23,038,29,69,44,241,36,84,37,328,22,,,,33*5C
$GLGSV,2,2,06,,,,33,,,,44*63
$GNGLL,3933.86174,N,10506.33128,W,234615.00,A,A*6D
$GNRMC,234616.00,A,3933.85902,N,10506.33186,W,9.139,189.78,050721,,,A*6B
$GNVTG,189.78,T,,M,9.139,N,16.925,K,A*17
$GNGGA,234616.00,3933.85902,N,10506.33186,W,1,08,1.52,1734.8,M,-21.7,M,,*4B
$GNGSA,A,3,10,15,18,23,27,,,,,,,,2.91,1.52,2.48*16
$GNGSA,A,3,69,67,84,,,,,,,,,,2.91,1.52,2.48*1C
$GPGSV,3,1,12,08,08,325,18,10,51,283,33,13,,,20,15,35,050,44*4E
$GPGSV,3,2,12,18,68,103,41,23,71,353,36,24,,,30,27,32,304,35*4C
$GPGSV,3,3,12,29,10,171,33,32,,,40,48,36,220,34,51,44,183,44*42
$GLGSV,2,1,06,67,23,038,29,69,44,241,37,84,37,328,22,,,,33*5D
$GLGSV,2,2,06,,,,33,,,,41*66
$GNGLL,3933.85902,N,10506.33186,W,234616.00,A,A*60
$GNRMC,234617.00,A,3933.85735,N,10506.33230,W,5.143,192.89,050721,,,A*6B
$GNVTG,192.89,T,,M,5.143,N,9.525,K,A*20
$GNGGA,234617.00,3933.85735,N,10506.33230,W,1,08,1.52,1735.2,M,-21.7,M,,*45
$GNGSA,A,3,10,15,18,23,27,,,,,,,,2.91,1.52,2.48*16
$GNGSA,A,3,69,67,84,,,,,,,,,,2.91,1.52,2.48*1C
$GPGSV,3,1,12,08,08,325,15,10,51,283,28,15,35,050,41,18,68,103,40*7D
$GPGSV,3,2,12,23,71,353,35,24,,,31,27,32,304,41,29,10,171,36*45
$GPGSV,3,3,12,32,,,41,46,44,169,36,48,36,220,41,51,44,183,44*45
$GLGSV,2,1,06,67,23,038,28,69,44,241,40,84,37,328,24,,,,31*58
$GLGSV,2,2,06,,,,31,,,,38*6A
$GNGLL,3933.85735,N,10506.33230,W,234617.00,A,A*65
$GNRMC,234618.00,A,3933.85641,N,10506.33244,W,2.728,193.83,050721,,,A*62
$GNVTG,193.83,T,,M,2.728,N,5.052,K,A*2E
$GNGGA,234618.00,3933.85641,N,10506.33244,W,1,08,1.52,1735.6,M,-21.7,M,,*4F
$GNGSA,A,3,10,15,18,23,27,,,,,,,,2.91,1.52,2.48*16
$GNGSA,A,3,69,67,84,,,,,,,,,,2.91,1.52,2.48*1C
$GPGSV,3,1,12,08,08,325,11,10,51,283,26,15,35,050,34,18,68,103,39*7B
$GPGSV,3,2,12,23,71,353,33,24,,,26,27,32,304,42,29,10,171,32*42
$GPGSV,3,3,12,32,,,43,46,44,169,36,48,36,220,40,51,44,183,44*46
$GLGSV,2,1,06,67,23,038,32,69,44,241,38,84,37,328,26,,,,30*5F
$GLGSV,2,2,06,,,,30,,,,36*65
$GNGLL,3933.85641,N,10506.33244,W,234618.00,A,A*6B
$GNRMC,234619.00,A,3933.85530,N,10506.33326,W,5.375,204.61,050721,,,A*69
$GNVTG,204.61,T,,M,5.375,N,9.955,K,A*26
$GNGGA,234619.00,3933.85530,N,10506.33326,W,1,08,1.52,1735.8,M,-21.7,M,,*40
$GNGSA,A,3,10,15,18,23,27,,,,,,,,2.91,1.52,2.48*16
$GNGSA,A,3,69,67,84,,,,,,,,,,2.91,1.52,2.48*1C
$GPGSV,3,1,12,08,08,325,09,10,51,283,31,15,35,050,41,18,68,103,34*7B
$GPGSV,3,2,12,23,71,353,29,24,,,41,27,32,304,26,29,10,171,35*4D
$GPGSV,3,3,12,32,,,26,46,44,169,40,48,36,220,35,51,44,183,40*42
$GLGSV,2,1,07,67,23,038,32,69,44,241,30,76,02,018,,84,37,328,27*6E
$GLGSV,2,2,07,,,,28,,,,38,,,,36*66
$GNGLL,3933.85530,N,10506.33326,W,234619.00,A,A*6A
$GNRMC,234620.00,A,3933.85406,N,10506.33503,W,7.078,226.07,050721,,,A*6A
$GNVTG,226.07,T,,M,7.078,N,13.109,K,A*10
$GNGGA,234620.00,3933.85406,N,10506.33503,W,1,08,1.52,1735.0,M,-21.7,M,,*47
$GNGSA,A,3,10,15,18,23,27,,,,,,,,2.91,1.52,2.48*16
$GNGSA,A,3,69,67,84,,,,,,,,,,2.91,1.52,2.48*1C
$GPGSV,3,1,12,08,08,325,,10,51,283,36,15,35,050,28,18,68,103,37*79
$GPGSV,3,2,12,23,71,353,39,24,,,41,27,32,304,27,29,10,171,37*4F
$GPGSV,3,3,12,32,,,38,46,44,169,40,48,36,220,42,51,44,183,36*4C
$GLGSV,2,1,07,67,23,038,32,69,44,241,45,76,02,018,,84,37,328,27*6C
$GLGSV,2,2,07,,,,31,,,,41,,,,36*60
$GNGLL,3933.85406,N,10506.33503,W,234620.00,A,A*65
$GNRMC,234621.00,A,3933.85345,N,10506.33801,W,9.214,257.96,050721,,,A*6C
$GNVTG,257.96,T,,M,9.214,N,17.065,K,A*17
$GNGGA,234621.00,3933.85345,N,10506.33801,W,1,08,1.52,1735.2,M,-21.7,M,,*4B
$GNGSA,A,3,10,15,18,23,27,,,,,,,,2.91,1.52,2.48*16
$GNGSA,A,3,69,67,84,,,,,,,,,,2.91,1.52,2.48*1C
$GPGSV,3,1,12,08,08,325,,10,51,283,27,15,35,050,38,18,68,103,42*7A
$GPGSV,3,2,12,23,71,353,37,24,,,32,27,32,304,35,29,10,171,35*44
$GPGSV,3,3,12,32,,,37,46,44,169,36,48,36,220,31,51,44,183,30*40
$GLGSV,2,1,07,67,23,038,39,69,44,242,42,76,02,018,,84,37,328,24*60
$GLGSV,2,2,07,,,,30,,,,46,,,,36*66
$GNGLL,3933.85345,N,10506.33801,W,234621.00,A,A*6B
$GNRMC,234622.00,A,3933.85311,N,10506.34189,W,12.272,269.37,050721,,,A*5C
$GNVTG,269.37,T,,M,12.272,N,22.729,K,A*22
$GNGGA,234622.00,3933.85311,N,10506.34189,W,1,08,1.52,1735.2,M,-21.7,M,,*47
$GNGSA,A,3,10,15,18,23,27,,,,,,,,2.91,1.52,2.48*16
$GNGSA,A,3,69,67,84,,,,,,,,,,2.91,1.52,2.48*1C
$GPGSV,3,1,12,08,08,325,,10,51,283,40,15,35,050,36,18,68,103,40*77
$GPGSV,3,2,12,23,71,353,32,24,,,27,27,32,304,32,29,10,171,25*43
$GPGSV,3,3,12,32,,,36,46,44,169,32,48,36,220,34,51,44,183,40*47
$GLGSV,2,1,07,67,23,038,38,69,44,242,44,76,02,018,,84,37,328,21*62
$GLGSV,2,2,07,,,,31,,,,39,,,,33*6A
$GNGLL,3933.85311,N,10506.34189,W,234622.00,A,A*67
$GNRMC,234623.00,A,3933.85310,N,10506.34666,W,14.719,271.90,050721,,,A*50
$GNVTG,271.90,T,,M,14.719,N,27.260,K,A*25
$GNGGA,234623.00,3933.85310,N,10506.34666,W,1,08,1.52,1735.0,M,-21.7,M,,*43
$GNGSA,A,3,10,15,18,23,27,,,,,,,,2.91,1.52,2.48*16
$GNGSA,A,3,69,67,84,,,,,,,,,,2.91,1.52,2.48*1C
$GPGSV,3,1,12,08,08,325,,10,51,283,40,15,35,050,37,18,68,103,36*77
$GPGSV,3,2,12,23,71,353,31,24,,,32,27,32,304,35,29,10,171,25*43
$GPGSV,3,3,12,32,,,44,46,44,169,37,48,36,220,37,51,44,183,39*4A
$GLGSV,2,1,07,67,23,038,35,69,44,242,46,76,02,018,,84,37,328,22*6E
$GLGSV,2,2,07,,,,32,,,,38,,,,26*6C
$GNGLL,3933.85310,N,10506.34666,W,234623.00,A,A*61
$GNRMC,234624.00,A,3933.85341,N,10506.35230,W,16.473,274.30,050721,,,A*57
$GNVTG,274.30,T,,M,16.473,N,30.508,K,A*28
$GNGGA,234624.00,3933.85341,N,10506.35230,W,1,08,1.52,1735.0,M,-21.7,M,,*46
$GNGSA,A,3,10,15,18,23,27,,,,,,,,2.91,1.52,2.48*16
$GNGSA,A,3,69,67,84,,,,,,,,,,2.91,1.52,2.48*1C
$GPGSV,3,1,12,08,08,325,,10,51,283,42,15,35,050,37,18,68,103,34*77
$GPGSV,3,2,12,23,71,353,29,24,,,31,27,32,304,35,29,10,171,22*4E
$GPGSV,3,3,12,32,,,35,46,44,169,35,48,36,220,34,51,44,183,41*42
$GLGSV,2,1,07,67,23,038,26,69,44,242,45,76,02,018,,84,37,328,24*69
$GLGSV,2,2,07,,,,33,,,,40,,,,26*62
$GNGLL,3933.85341,N,10506.35230,W,234624.00,A,A*64
$GNRMC,234625.00,A,3933.85378,N,10506.35821,W,17.411,278.11,050721,,,A*5C
$GNVTG,278.11,T,,M,17.411,N,32.244,K,A*2F
$GNGGA,234625.00,3933.85378,N,10506.35821,W,1,08,1.52,1734.3,M,-21.7,M,,*45
$GNGSA,A,3,10,15,18,23,27,,,,,,,,2.91,1.52,2.48*16
$GNGSA,A,3,69,67,84,,,,,,,,,,2.91,1.52,2.48*1C
$GPGSV,3,1,12,08,08,325,,10,51,283,43,15,35,050,36,18,68,103,24*76
$GPGSV,3,2,12,23,71,353,28,24,,,30,27,32,304,35,29,10,171,20*4C
$GPGSV,3,3,12,32,,,36,46,44,169,39,48,36,220,37,51,44,183,39*41
$GLGSV,2,1,07,67,23,038,35,69,44,242,44,76,02,018,,84,37,328,25*6B
$GLGSV,2,2,07,,,,33,,,,33,,,,27*67
$GNGLL,3933.85378,N,10506.35821,W,234625.00,A,A*65
$GNRMC,234626.00,A,3933.85451,N,10506.36464,W,18.663,279.88,050721,,,A*54
$GNVTG,279.88,T,,M,18.663,N,34.564,K,A*25
$GNGGA,234626.00,3933.85451,N,10506.36464,W,1,08,1.52,1733.9,M,-21.7,M,,*49
$GNGSA,A,3,10,15,18,23,27,,,,,,,,2.91,1.52,2.48*16
$GNGSA,A,3,69,67,84,,,,,,,,,,2.91,1.52,2.48*1C
$GPGSV,3,1,12,08,08,325,07,10,51,283,43,15,35,050,38,18,68,103,31*7B
$GPGSV,3,2,12,23,71,353,26,24,,,30,27,32,304,35,29,10,171,19*48
$GPGSV,3,3,12,32,,,42,46,44,169,39,48,36,220,37,51,44,183,42*4E
$GLGSV,2,1,07,67,23,038,23,69,44,242,42,76,02,018,,84,37,328,26*69
$GLGSV,2,2,07,,,,33,,,,38,,,,26*6D
$GNGLL,3933.85451,N,10506.36464,W,234626.00,A,A*64
$GNRMC,234627.00,A,3933.85550,N,10506.37150,W,19.729,281.36,050721,,,A*5A
$GNVTG,281.36,T,,M,19.729,N,36.539,K,A*23
$GNGGA,234627.00,3933.85550,N,10506.37150,W,1,08,1.52,1734.0,M,-21.7,M,,*45
$GNGSA,A,3,10,15,18,23,27,,,,,,,,2.91,1.52,2.48*16
$GNGSA,A,3,69,67,84,,,,,,,,,,2.91,1.52,2.48*1C
$GPGSV,3,1,12,08,08,325,08,10,51,283,44,15,35,050,38,18,68,103,35*77
$GPGSV,3,2,12,23,71,353,24,24,,,30,27,32,304,36,29,10,171,28*4B
$GPGSV,3,3,12,32,,,33,46,44,169,36,48,36,220,35,51,44,183,39*49
$GLGSV,2,1,07,67,23,038,25,69,44,242,42,76,02,018,,84,37,328,25*6C
$GLGSV,2,2,07,,,,33,,,,33,,,,26*66
$GNGLL,3933.85550,N,10506.37150,W,234627.00,A,A*66
$GNRMC,234628.00,A,3933.85657,N,10506.37845,W,20.083,282.53,050721,,,A*51
$GNVTG,282.53,T,,M,20.083,N,37.194,K,A*2C
$GNGGA,234628.00,3933.85657,N,10506.37845,W,1,08,1.52,1733.4,M,-21.6,M,,*41
$GNGSA,A,3,10,15,18,23,27,,,,,,,,2.91,1.52,2.48*16
$GNGSA,A,3,69,67,84,,,,,,,,,,2.91,1.52,2.48*1C
$GPGSV,3,1,12,08,08,325,14,10,51,283,44,15,35,050,37,18,68,103,35*75
$GPGSV,3,2,12,23,71,353,23,24,,,30,27,32,304,36,29,10,171,29*4D
$GPGSV,3,3,12,32,,,32,46,44,169,38,48,36,220,34,51,44,183,38*46
$GLGSV,2,1,07,67,23,038,25,69,44,242,40,76,02,018,,84,37,328,24*6F
$GLGSV,2,2,07,,,,33,,,,28,,,,26*6C
$GNGLL,3933.85657,N,10506.37845,W,234628.00,A,A*60
$GNRMC,234629.00,A,3933.85778,N,10506.38548,W,20.120,282.59,050721,,,A*51
$GNVTG,282.59,T,,M,20.120,N,37.262,K,A*24
$GNGGA,234629.00,3933.85778,N,10506.38548,W,1,08,1.52,1733.5,M,-21.6,M,,*42
$GNGSA,A,3,10,15,18,23,27,,,,,,,,2.91,1.52,2.48*16
$GNGSA,A,3,69,67,84,,,,,,,,,,2.91,1.52,2.48*1C
$GPGSV,3,1,12,08,08,325,13,10,51,283,45,15,35,050,35,18,68,103,36*72
$GPGSV,3,2,12,23,71,353,22,24,,,30,27,32,304,38,29,10,171,28*43
$GPGSV,3,3,12,32,,,32,46,44,169,29,48,36,220,34,51,44,183,31*4F
$GLGSV,2,1,07,67,23,038,25,69,44,242,41,76,02,018,,84,38,328,23*66
$GLGSV,2,2,07,,,,33,,,,28,,,,27*6D
$GNGLL,3933.85778,N,10506.38548,W,234629.00,A,A*62
$GNRMC,234630.00,A,3933.85894,N,10506.39231,W,19.557,283.94,050721,,,A*52
$GNVTG,283.94,T,,M,19.557,N,36.219,K,A*27
$GNGGA,234630.00,3933.85894,N,10506.39231,W,1,08,1.52,1732.4,M,-21.6,M,,*4F
$GNGSA,A,3,10,15,18,23,27,,,,,,,,2.91,1.52,2.48*16
$GNGSA,A,3,69,67,84,,,,,,,,,,2.91,1.52,2.48*1C
$GPGSV,3,1,12,08,08,325,15,10,51,283,45,15,35,050,33,18,68,103,36*72
$GPGSV,3,2,12,23,71,353,25,24,,,30,27,32,304,38,29,10,171,26*4A
$GPGSV,3,3,12,32,,,41,46,44,169,37,48,36,220,36,51,44,183,35*42
$GLGSV,2,1,07,67,23,038,24,69,44,242,41,76,02,018,,84,38,328,21*65
$GLGSV,2,2,07,,,,33,,,,28,,,,27*6D
$GNGLL,3933.85894,N,10506.39231,W,234630.00,A,A*6F
$GNRMC,234631.00,A,3933.86013,N,10506.39936,W,20.235,281.06,050721,,,A*5B
$GNVTG,281.06,T,,M,20.235,N,37.475,K,A*2A
$GNGGA,234631.00,3933.86013,N,10506.39936,W,1,08,1.52,1732.9,M,-21.6,M,,*4B
$GNGSA,A,3,10,15,18,23,27,,,,,,,,2.91,1.52,2.48*16
$GNGSA,A,3,69,67,84,,,,,,,,,,2.91,1.52,2.48*1C
$GPGSV,3,1,12,08,08,325,14,10,51,283,44,15,35,050,32,18,68,103,36*73
$GPGSV,3,2,12,23,71,353,24,24,,,31,27,32,304,37,29,10,171,38*4A
$GPGSV,3,3,12,32,,,41,46,44,169,37,48,36,220,39,51,44,183,35*4D
$GLGSV,2,1,07,67,23,038,24,69,44,242,41,76,02,018,,84,38,328,22*66
$GLGSV,2,2,07,,,,32,,,,27,,,,27*63
$GNGLL,3933.86013,N,10506.39936,W,234631.00,A,A*66
$GNRMC,234632.00,A,3933.86132,N,10506.40635,W,19.858,282.98,050721,,,A*57
$GNVTG,282.98,T,,M,19.858,N,36.778,K,A*2A
$GNGGA,234632.00,3933.86132,N,10506.40635,W,1,08,1.52,1732.8,M,-21.6,M,,*49
$GNGSA,A,3,10,15,18,23,27,,,,,,,,2.91,1.52,2.48*16
$GNGSA,A,3,69,67,84,,,,,,,,,,2.91,1.52,2.48*1C
$GPGSV,3,1,12,08,08,325,12,10,51,283,45,15,35,050,36,18,68,103,34*72
$GPGSV,3,2,12,23,71,353,23,24,,,30,27,32,304,37,29,10,171,37*43
$GPGSV,3,3,12,32,,,39,46,44,169,38,48,36,220,39,51,44,183,38*40
$GLGSV,2,1,07,67,23,038,24,69,44,242,40,76,02,018,,84,38,328,22*67
$GLGSV,2,2,07,,,,33,,,,26,,,,26*62
$GNGLL,3933.86132,N,10506.40635,W,234632.00,A,A*65
$GNRMC,234633.00,A,3933.86257,N,10506.41323,W,19.656,283.31,050721,,,A*57
$GNVTG,283.31,T,,M,19.656,N,36.403,K,A*27
$GNGGA,234633.00,3933.86257,N,10506.41323,W,1,08,1.52,1732.6,M,-21.6,M,,*45
$GNGSA,A,3,10,15,18,23,27,,,,,,,,2.91,1.52,2.48*16
$GNGSA,A,3,69,67,84,,,,,,,,,,2.91,1.52,2.48*1C
$GPGSV,3,1,12,08,08,325,13,10,51,283,45,15,35,050,38,18,68,103,35*7C
$GPGSV,3,2,12,23,71,353,21,24,,,30,27,32,304,37,29,10,171,26*41
$GPGSV,3,3,12,32,,,31,46,44,169,37,48,36,220,35,51,44,183,36*45
$GLGSV,2,1,07,67,23,038,24,69,44,242,41,76,02,018,,84,38,328,22*66
$GLGSV,2,2,07,,,,33,,,,27,,,,27*62
$GNGLL,3933.86257,N,10506.41323,W,234633.00,A,A*67
$GNRMC,234634.00,A,3933.86381,N,10506.42002,W,19.315,282.83,050721,,,A*53
$GNVTG,282.83,T,,M,19.315,N,35.771,K,A*28
$GNGGA,234634.00,3933.86381,N,10506.42002,W,1,08,1.52,1732.9,M,-21.6,M,,*44
$GNGSA,A,3,10,15,18,23,27,,,,,,,,2.91,1.52,2.48*16
$GNGSA,A,3,69,67,84,,,,,,,,,,2.91,1.52,2.48*1C
$GPGSV,3,1,12,08,08,325,11,10,51,283,45,15,34,050,29,18,68,103,35*7F
$GPGSV,3,2,12,23,71,353,20,24,,,29,27,32,304,34,29,10,171,32*4E
$GPGSV,3,3,12,32,,,37,46,44,169,35,48,36,220,34,51,44,183,35*43
$GLGSV,2,1,07,67,23,038,25,69,44,242,41,76,02,018,,84,38,328,22*67
$GLGSV,2,2,07,,,,32,,,,27,,,,29*6D
$GNGLL,3933.86381,N,10506.42002,W,234634.00,A,A*69
$GNRMC,234635.00,A,3933.86501,N,10506.42619,W,17.244,284.36,050721,,,A*53
$GNVTG,284.36,T,,M,17.244,N,31.935,K,A*21
$GNGGA,234635.00,3933.86501,N,10506.42619,W,1,08,1.52,1732.7,M,-21.6,M,,*49
$GNGSA,A,3,10,15,18,23,27,,,,,,,,2.91,1.52,2.48*16
$GNGSA,A,3,69,67,84,,,,,,,,,,2.91,1.52,2.48*1C
$GPGSV,3,1,12,08,08,325,12,10,51,283,45,15,34,050,36,18,68,103,34*73
$GPGSV,3,2,12,23,71,353,24,24,,,29,27,32,304,37,29,10,171,31*4A
$GPGSV,3,3,12,32,,,34,46,44,169,35,48,36,220,36,51,44,183,40*40
$GLGSV,2,1,07,67,23,038,22,69,44,242,39,76,02,018,,84,38,328,21*6C
$GLGSV,2,2,07,,,,33,,,,28,,,,28*62
$GNGLL,3933.86501,N,10506.42619,W,234635.00,A,A*6A
$GNRMC,234636.00,A,3933.86608,N,10506.43157,W,14.816,284.45,050721,,,A*5C
$GNVTG,284.45,T,,M,14.816,N,27.439,K,A*2D
$GNGGA,234636.00,3933.86608,N,10506.43157,W,1,08,1.52,1732.5,M,-21.6,M,,*4E
$GNGSA,A,3,10,15,18,23,27,,,,,,,,2.91,1.52,2.48*16
$GNGSA,A,3,69,67,84,,,,,,,,,,2.91,1.52,2.48*1C
$GPGSV,3,1,12,08,08,325,14,10,51,283,45,15,34,050,32,18,68,103,34*71
$GPGSV,3,2,12,23,71,354,25,24,,,29,27,32,304,38,29,10,171,38*4A
$GPGSV,3,3,12,32,,,30,46,44,169,37,48,36,220,38,51,44,183,39*46
$GLGSV,2,1,07,67,23,038,21,69,44,242,40,76,02,018,,84,38,328,20*60
$GLGSV,2,2,07,,,,32,,,,28,,,,27*6C
$GNGLL,3933.86608,N,10506.43157,W,234636.00,A,A*6F
$GNRMC,234637.00,A,3933.86695,N,10506.43586,W,11.425,284.64,050721,,,A*5B
$GNVTG,284.64,T,,M,11.425,N,21.159,K,A*22
$GNGGA,234637.00,3933.86695,N,10506.43586,W,1,08,1.52,1732.5,M,-21.6,M,,*43
$GNGSA,A,3,10,15,18,23,27,,,,,,,,2.91,1.52,2.48*16
$GNGSA,A,3,69,67,84,,,,,,,,,,2.91,1.52,2.48*1C
$GPGSV,3,1,12,08,08,325,16,10,51,283,46,15,34,050,31,18,68,103,33*74
$GPGSV,3,2,12,23,71,354,26,24,,,29,27,32,304,39,29,10,171,20*41
$GPGSV,3,3,12,32,,,37,46,44,169,38,48,36,220,40,51,44,183,39*41
$GLGSV,2,1,07,67,23,038,22,69,44,242,38,76,02,018,,84,38,328,21*6D
$GLGSV,2,2,07,,,,32,,,,36,,,,27*63
$GNGLL,3933.86695,N,10506.43586,W,234637.00,A,A*62
$GNRMC,234638.00,A,3933.86769,N,10506.43949,W,10.242,285.34,050721,,,A*5B
$GNVTG,285.34,T,,M,10.242,N,18.968,K,A*20
$GNGGA,234638.00,3933.86769,N,10506.43949,W,1,08,1.52,1732.2,M,-21.6,M,,*46
$GNGSA,A,3,10,15,18,23,27,,,,,,,,2.91,1.52,2.48*16
$GNGSA,A,3,69,67,84,,,,,,,,,,2.91,1.52,2.48*1C
$GPGSV,3,1,12,08,08,325,17,10,51,283,45,15,34,050,37,18,68,103,33*70
$GPGSV,3,2,12,23,71,354,28,24,,,28,27,32,304,39,29,10,171,28*46
$GPGSV,3,3,12,32,,,37,46,44,169,39,48,36,220,39,51,44,183,40*40
$GLGSV,2,1,07,67,23,038,22,69,44,242,38,76,02,018,,84,38,328,21*6D
$GLGSV,2,2,07,,,,32,,,,35,,,,25*62
$GNGLL,3933.86769,N,10506.43949,W,234638.00,A,A*60
$GNRMC,234639.00,A,3933.86850,N,10506.44345,W,12.302,284.74,050721,,,A*5C
$GNVTG,284.74,T,,M,12.302,N,22.784,K,A*27
$GNGGA,234639.00,3933.86850,N,10506.44345,W,1,09,1.55,1731.7,M,-21.6,M,,*43
$GNGSA,A,3,10,15,18,23,27,,,,,,,,3.26,1.55,2.86*1E
$GNGSA,A,3,69,67,84,83,,,,,,,,,3.26,1.55,2.86*1F
$GPGSV,3,1,12,08,08,325,16,10,51,283,45,15,34,050,38,18,68,103,33*7E
$GPGSV,3,2,12,23,71,354,33,24,,,27,27,32,304,38,29,10,171,32*49
$GPGSV,3,3,12,32,,,39,46,44,169,38,48,36,220,39,51,44,183,39*41
$GLGSV,2,1,07,67,23,038,29,69,44,242,38,76,02,018,,83,77,153,33*67
$GLGSV,2,2,07,84,38,328,22,,,,35,,,,27*5F
$GNGLL,3933.86850,N,10506.44345,W,234639.00,A,A*65
$GNRMC,234640.00,A,3933.86946,N,10506.44809,W,14.115,284.85,050721,,,A*5B
$GNVTG,284.85,T,,M,14.115,N,26.141,K,A*20
$GNGGA,234640.00,3933.86946,N,10506.44809,W,1,09,1.55,1731.4,M,-21.6,M,,*4B
$GNGSA,A,3,10,15,18,23,27,,,,,,,,3.26,1.55,2.86*1E
$GNGSA,A,3,69,67,84,83,,,,,,,,,3.26,1.55,2.86*1F
$GPGSV,3,1,12,08,08,325,17,10,51,283,45,15,34,050,38,18,68,103,33*7F
$GPGSV,3,2,12,23,71,354,32,24,,,25,27,32,304,38,29,10,171,35*4D
$GPGSV,3,3,12,32,,,37,46,44,169,38,48,36,220,40,51,44,183,39*41
$GLGSV,2,1,07,67,23,038,27,69,44,242,38,76,02,018,,83,77,153,32*68
$GLGSV,2,2,07,84,38,328,21,,,,34,,,,30*5B
$GNGLL,3933.86946,N,10506.44809,W,234640.00,A,A*6E
$GNRMC,234641.00,A,3933.87060,N,10506.45334,W,15.631,285.76,050721,,,A*5F
$GNVTG,285.76,T,,M,15.631,N,28.948,K,A*22
$GNGGA,234641.00,3933.87060,N,10506.45334,W,1,09,1.55,1731.4,M,-21.6,M,,*42
$GNGSA,A,3,10,15,18,23,27,,,,,,,,3.26,1.55,2.86*1E
$GNGSA,A,3,69,67,84,83,,,,,,,,,3.26,1.55,2.86*1F
$GPGSV,3,1,12,08,08,325,18,10,51,283,45,15,34,050,38,18,68,103,35*76
$GPGSV,3,2,12,23,71,354,33,24,,,24,27,32,304,39,29,10,171,37*4E
$GPGSV,3,3,12,32,,,34,46,44,169,39,48,36,220,40,51,44,183,39*43
$GLGSV,2,1,07,67,23,038,26,69,44,242,38,76,02,018,,83,77,153,32*69
$GLGSV,2,2,07,84,38,328,21,,,,34,,,,30*5B
$GNGLL,3933.87060,N,10506.45334,W,234641.00,A,A*67
$GNRMC,234642.00,A,3933.87193,N,10506.45898,W,16.704,286.79,050721,,,A*54
$GNVTG,286.79,T,,M,16.704,N,30.937,K,A*2B
$GNGGA,234642.00,3933.87193,N,10506.45898,W,1,09,1.49,1731.5,M,-21.6,M,,*4D
$GNGSA,A,3,10,15,18,23,27,,,,,,,,2.83,1.49,2.40*17
$GNGSA,A,3,69,67,84,83,,,,,,,,,2.83,1.49,2.40*16
$GPGSV,3,1,12,08,08,325,19,10,51,283,46,15,34,050,38,18,68,103,36*77
$GPGSV,3,2,12,23,71,354,33,24,,,23,27,32,304,39,29,10,171,30*4E
$GPGSV,3,3,12,32,,,31,46,44,169,39,48,36,220,41,51,44,183,41*48
$GLGSV,2,1,07,67,23,038,26,69,44,242,38,76,02,018,,83,77,153,33*68
$GLGSV,2,2,07,84,38,328,21,,,,35,,,,29*52
$GNGLL,3933.87193,N,10506.45898,W,234642.00,A,A*64
$GNRMC,234643.00,A,3933.87354,N,10506.46476,W,17.094,290.59,050721,,,A*59
$GNVTG,290.59,T,,M,17.094,N,31.657,K,A*29
$GNGGA,234643.00,3933.87354,N,10506.46476,W,1,09,1.55,1731.4,M,-21.6,M,,*46
$GNGSA,A,3,10,15,18,23,27,,,,,,,,3.26,1.55,2.86*1E
$GNGSA,A,3,69,67,84,83,,,,,,,,,3.26,1.55,2.86*1F
$GPGSV,3,1,12,08,08,325,18,10,51,283,46,15,34,050,35,18,68,103,37*7A
$GPGSV,3,2,12,23,71,354,34,24,,,25,27,32,304,42,29,10,171,35*46
$GPGSV,3,3,12,32,,,36,46,44,169,41,48,36,220,42,51,44,183,41*43
$GLGSV,2,1,07,67,23,038,31,69,44,242,38,76,02,018,,83,77,153,32*6F
$GLGSV,2,2,07,84,38,328,20,,,,35,,,,27*5D
$GNGLL,3933.87354,N,10506.46476,W,234643.00,A,A*63
$GNRMC,234644.00,A,3933.87543,N,10506.47059,W,17.590,293.77,050721,,,A*58
$GNVTG,293.77,T,,M,17.590,N,32.578,K,A*2A
$GNGGA,234644.00,3933.87543,N,10506.47059,W,1,09,1.49,1731.8,M,-21.6,M,,*48
$GNGSA,A,3,10,15,18,23,27,,,,,,,,2.83,1.49,2.40*17
$GNGSA,A,3,69,67,84,83,,,,,,,,,2.83,1.49,2.40*16
$GPGSV,3,1,12,08,08,325,17,10,51,283,45,15,34,050,35,18,68,103,38*79
$GPGSV,3,2,12,23,71,354,34,24,,,33,27,32,304,41,29,10,171,31*46
$GPGSV,3,3,12,32,,,25,46,44,169,41,48,36,220,42,51,44,183,44*44
$GLGSV,2,1,07,67,23,038,36,69,44,242,38,76,02,018,,83,77,153,32*68
$GLGSV,2,2,07,84,38,328,21,,,,39,,,,27*50
$GNGLL,3933.87543,N,10506.47059,W,234644.00,A,A*6C
$GNRMC,234645.00,A,3933.87755,N,10506.47655,W,18.307,295.78,050721,,,A*58
$GNVTG,295.78,T,,M,18.307,N,33.904,K,A*22
$GNGGA,234645.00,3933.87755,N,10506.47655,W,1,09,1.49,1732.4,M,-21.6,M,,*49
$GNGSA,A,3,10,15,18,23,27,,,,,,,,2.83,1.49,2.41*16
$GNGSA,A,3,69,67,84,83,,,,,,,,,2.83,1.49,2.41*17
$GPGSV,3,1,12,08,08,325,19,10,51,283,43,15,34,050,36,18,68,103,38*72
$GPGSV,3,2,12,23,71,354,33,24,,,33,27,32,304,40,29,10,171,34*45
$GPGSV,3,3,12,32,,,23,46,44,169,41,48,36,220,42,51,44,183,44*42
$GLGSV,2,1,07,67,23,038,38,69,44,242,34,76,02,018,,83,77,153,32*6A
$GLGSV,2,2,07,84,38,328,23,,,,34,,,,28*50
$GNGLL,3933.87755,N,10506.47655,W,234645.00,A,A*62
$GNRMC,234646.00,A,3933.87987,N,10506.48250,W,19.013,297.59,050721,,,A*52
$GNVTG,297.59,T,,M,19.013,N,35.212,K,A*2E
$GNGGA,234646.00,3933.87987,N,10506.48250,W,1,09,1.49,1732.3,M,-21.6,M,,*42
$GNGSA,A,3,10,15,18,23,27,,,,,,,,2.83,1.49,2.41*16
$GNGSA,A,3,69,67,84,83,,,,,,,,,2.83,1.49,2.41*17
$GPGSV,3,1,12,08,08,325,22,10,51,283,42,15,34,050,40,18,68,103,36*74
$GPGSV,3,2,12,23,71,354,32,24,,,34,27,32,304,38,29,10,171,24*4D
$GPGSV,3,3,12,32,,,25,46,44,169,41,48,36,220,42,51,44,183,44*44
$GLGSV,2,1,07,67,23,038,29,69,44,242,32,76,02,018,,83,77,153,32*6C
$GLGSV,2,2,07,84,38,328,23,,,,31,,,,30*5C
$GNGLL,3933.87987,N,10506.48250,W,234646.00,A,A*6E
$GNRMC,234647.00,A,3933.88236,N,10506.48863,W,19.430,298.29,050721,,,A*5A
$GNVTG,298.29,T,,M,19.430,N,35.985,K,A*26
$GNGGA,234647.00,3933.88236,N,10506.48863,W,1,09,1.49,1732.5,M,-21.6,M,,*41
$GNGSA,A,3,10,15,18,23,27,,,,,,,,2.83,1.49,2.41*16
$GNGSA,A,3,69,67,84,83,,,,,,,,,2.83,1.49,2.41*17
$GPGSV,3,1,12,08,08,325,24,10,51,283,41,15,34,050,29,18,68,103,37*7F
$GPGSV,3,2,12,23,71,354,31,24,,,33,27,32,304,38,29,10,171,24*49
$GPGSV,3,3,12,32,,,34,46,44,169,41,48,36,220,42,51,44,183,44*44
$GLGSV,2,1,07,67,23,038,29,69,44,242,33,76,02,018,,83,77,153,32*6D
$GLGSV,2,2,07,84,38,328,23,,,,31,,,,31*5D
$GNGLL,3933.88236,N,10506.48863,W,234647.00,A,A*6B
$GNRMC,234648.00,A,3933.88481,N,10506.49492,W,19.530,296.11,050721,,,A*58
$GNVTG,296.11,T,,M,19.530,N,36.170,K,A*23
$GNGGA,234648.00,3933.88481,N,10506.49492,W,1,09,1.49,1732.9,M,-21.6,M,,*4B
$GNGSA,A,3,10,15,18,23,27,,,,,,,,2.83,1.49,2.41*16
$GNGSA,A,3,69,67,84,83,,,,,,,,,2.83,1.49,2.41*17
$GPGSV,3,1,12,08,08,325,21,10,51,283,43,15,34,050,36,18,68,103,37*76
$GPGSV,3,2,12,23,71,354,31,24,,,33,27,32,304,37,29,10,171,22*40
$GPGSV,3,3,12,32,,,34,46,44,169,41,48,36,220,42,51,44,183,45*45
$GLGSV,2,1,07,67,23,038,37,69,44,242,36,76,02,018,,83,77,153,31*64
$GLGSV,2,2,07,84,38,328,23,,,,31,,,,31*5D
$GNGLL,3933.88481,N,10506.49492,W,234648.00,A,A*6D
$GNRMC,234649.00,A,3933.88712,N,10506.50126,W,19.655,294.70,050721,,,A*57
$GNVTG,294.70,T,,M,19.655,N,36.401,K,A*25
$GNGGA,234649.00,3933.88712,N,10506.50126,W,1,09,1.49,1733.2,M,-21.6,M,,*4B
$GNGSA,A,3,10,15,18,23,27,,,,,,,,2.83,1.49,2.41*16
$GNGSA,A,3,69,67,84,83,,,,,,,,,2.83,1.49,2.41*17
$GPGSV,3,1,12,08,08,325,19,10,51,283,44,15,34,050,24,18,68,103,36*78
$GPGSV,3,2,12,23,71,354,33,24,,,32,27,32,304,40,29,10,171,29*48
$GPGSV,3,3,12,32,,,34,46,44,169,43,48,36,220,42,51,44,183,44*46
$GLGSV,2,1,07,67,23,038,31,69,44,242,38,76,02,018,,83,77,153,31*6C
$GLGSV,2,2,07,84,38,328,23,,,,39,,,,31*55
$GNGLL,3933.88712,N,10506.50126,W,234649.00,A,A*67
$GNRMC,234650.00,A,3933.88944,N,10506.50782,W,19.922,292.15,050721,,,A*50
$GNVTG,292.15,T,,M,19.922,N,36.895,K,A*2E
$GNGGA,234650.00,3933.88944,N,10506.50782,W,1,09,1.49,1734.1,M,-21.6,M,,*42
$GNGSA,A,3,10,15,18,23,27,,,,,,,,2.83,1.49,2.41*16
$GNGSA,A,3,69,67,84,83,,,,,,,,,2.83,1.49,2.41*17
$GPGSV,3,1,12,08,08,325,17,10,51,283,45,15,34,050,34,18,68,103,37*77
$GPGSV,3,2,12,23,71,354,33,24,,,30,27,32,304,41,29,10,171,28*4A
$GPGSV,3,3,12,32,,,31,46,44,169,42,48,36,220,41,51,44,183,44*41
$GLGSV,2,1,07,67,23,038,36,69,44,242,40,76,02,018,,83,77,153,31*64
$GLGSV,2,2,07,84,38,328,22,,,,39,,,,29*5D
$GNGLL,3933.88944,N,10506.50782,W,234650.00,A,A*6A
$GNRMC,234651.00,A,3933.89131,N,10506.51457,W,20.031,287.40,050721,,,A*55
$GNVTG,287.40,T,,M,20.031,N,37.097,K,A*20
$GNGGA,234651.00,3933.89131,N,10506.51457,W,1,09,1.49,1734.5,M,-21.6,M,,*46
$GNGSA,A,3,10,15,18,23,27,,,,,,,,2.83,1.49,2.41*16
$GNGSA,A,3,69,67,84,83,,,,,,,,,2.83,1.49,2.41*17
$GPGSV,3,1,12,08,08,325,15,10,51,283,46,15,34,050,36,18,68,103,37*74
$GPGSV,3,2,12,23,71,354,34,24,,,28,27,32,304,40,29,10,171,35*49
$GPGSV,3,3,12,32,,,36,46,44,169,41,48,36,220,42,51,44,183,43*41
$GLGSV,2,1,07,67,23,038,29,69,44,242,38,76,02,018,,83,77,153,31*65
$GLGSV,2,2,07,84,38,328,21,,,,35,,,,28*53
$GNGLL,3933.89131,N,10506.51457,W,234651.00,A,A*6A
$GNRMC,234652.00,A,3933.89239,N,10506.52158,W,20.063,280.02,050721,,,A*52
$GNVTG,280.02,T,,M,20.063,N,37.157,K,A*2B
$GNGGA,234652.00,3933.89239,N,10506.52158,W,1,09,1.49,1734.5,M,-21.6,M,,*47
$GNGSA,A,3,10,15,18,23,27,,,,,,,,2.83,1.49,2.41*16
$GNGSA,A,3,69,67,84,83,,,,,,,,,2.83,1.49,2.41*17
$GPGSV,3,1,12,08,08,325,16,10,51,283,45,15,34,050,39,18,68,103,23*7E
$GPGSV,3,2,12,23,71,354,34,24,,,31,27,32,304,35,29,10,171,32*44
$GPGSV,3,3,12,32,,,39,46,44,169,39,48,36,220,38,51,44,183,39*41
$GLGSV,2,1,07,67,23,038,34,69,44,242,39,76,02,018,,83,77,153,32*6B
$GLGSV,2,2,07,84,38,328,22,,,,39,,,,28*5C
$GNGLL,3933.89239,N,10506.52158,W,234652.00,A,A*6B
$GNRMC,234653.00,A,3933.89296,N,10506.52851,W,19.444,275.52,050721,,,A*52
$GNVTG,275.52,T,,M,19.444,N,36.010,K,A*2C
$GNGGA,234653.00,3933.89296,N,10506.52851,W,1,09,1.49,1734.8,M,-21.6,M,,*4E
$GNGSA,A,3,10,15,18,23,27,,,,,,,,2.83,1.49,2.41*16
$GNGSA,A,3,69,67,84,83,,,,,,,,,2.83,1.49,2.41*17
$GPGSV,3,1,12,08,08,325,27,10,51,283,43,15,34,050,39,18,68,103,35*7D
$GPGSV,3,2,12,23,71,354,31,24,,,30,27,32,304,31,29,10,171,26*41
$GPGSV,3,3,12,32,,,42,46,44,169,40,48,36,220,36,51,44,183,40*43
$GLGSV,2,1,08,67,23,038,37,69,44,242,45,76,02,018,,82,28,151,*64
$GLGSV,2,2,08,83,77,153,33,84,38,328,24,,,,41,,,,17*6A
$GNGLL,3933.89296,N,10506.52851,W,234653.00,A,A*6F
$GNRMC,234654.00,A,3933.89333,N,10506.53528,W,18.725,273.69,050721,,,A*52
$GNVTG,273.69,T,,M,18.725,N,34.678,K,A*2D
$GNGGA,234654.00,3933.89333,N,10506.53528,W,1,09,1.49,1735.4,M,-21.6,M,,*48
$GNGSA,A,3,10,15,18,23,27,,,,,,,,2.83,1.49,2.41*16
$GNGSA,A,3,69,67,84,83,,,,,,,,,2.83,1.49,2.41*17
$GPGSV,3,1,12,08,08,325,27,10,51,283,41,15,34,050,39,18,68,103,38*72
$GPGSV,3,2,12,23,71,354,30,24,,,29,27,32,304,36,29,10,171,26*4F
$GPGSV,3,3,12,32,,,40,46,44,169,39,48,36,220,36,51,44,183,39*41
$GLGSV,2,1,07,67,23,038,35,69,44,242,45,76,02,018,,82,28,151,42*6F
$GLGSV,2,2,07,83,77,153,33,84,38,328,24,,,,22*66
$GNGLL,3933.89333,N,10506.53528,W,234654.00,A,A*64
$GNRMC,234655.00,A,3933.89348,N,10506.54182,W,17.927,271.98,050721,,,A*53
$GNVTG,271.98,T,,M,17.927,N,33.201,K,A*2F
$GNGGA,234655.00,3933.89348,N,10506.54182,W,1,09,1.49,1736.6,M,-21.6,M,,*47
$GNGSA,A,3,10,15,18,23,27,,,,,,,,2.83,1.49,2.41*16
$GNGSA,A,3,69,67,84,83,,,,,,,,,2.83,1.49,2.41*17
$GPGSV,3,1,12,08,08,325,26,10,51,283,41,15,34,050,35,18,68,103,40*70
$GPGSV,3,2,12,23,71,354,30,24,,,30,27,32,304,37,29,10,171,26*46
$GPGSV,3,3,12,32,,,41,46,38,215,38,48,40,210,37,51,44,183,40*4F
$GLGSV,2,1,07,67,23,038,40,69,44,242,45,76,02,018,,82,28,151,39*61
$GLGSV,2,2,07,83,77,153,33,84,38,328,24,,,,33*66
