$GNGLL,,,,,,V,N*7A
$GNGLL,,,,,,V,N*7A
$GNGLL,,,,,,V,N*7A
$GNGLL,,,,,,V,N*7A
$GNGLL,,,,,,V,N*7A
$GNGLL,,,,,,V,N*7A
$GNGLL,,,,,,V,N*7A
$GNGLL,,,,,,V,N*7A
$GNGLL,,,,,,V,N*7A
$GNGLL,,,,,,V,N*7A
$GNGLL,,,,,,V,N*7A
$GNGLL,,,,,,V,N*7A
$GNGLL,,,,,,V,N*7A
$GNGLL,,,,,,V,N*7A
$GNGLL,,,,,,V,N*7A
$GNGLL,,,,,,V,N*7A
$GNGLL,,,,,,V,N*7A
$GNGLL,,,,,,V,N*7A
$GNGLL,,,,,,V,N*7A
$GNGLL,,,,,,V,N*7A
$GNGLL,,,,,,V,N*7A
$GNGLL,,,,,,V,N*7A
$GNGLL,,,,,,V,N*7A
$GNGLL,,,,,,V,N*7A
$GNGLL,,,,,,V,N*7A
$GNGLL,,,,,,V,N*7A
$GNGLL,,,,,,V,N*7A
$GNGLL,,,,,,V,N*7A
$GNGLL,,,,,,V,N*7A
$GNGLL,,,,,,V,N*7A
$GNGLL,,,,,,V,N*7A
$GNGLL,,,,,,V,N*7A
$GNGLL,,,,,,V,N*7A
$GNGLL,,,,,,V,N*7A
$GNGLL,,,,,,V,N*7A
$GNGLL,,,,,045633.32,V,N*52
$GNGLL,,,,,045634.00,V,N*54
$GNGLL,,,,,045635.00,V,N*55
$GNGLL,,,,,045636.00,V,N*56
$GNGLL,,,,,045637.00,V,N*57
$GNGLL,,,,,045638.00,V,N*58
$GNGLL,,,,,045639.00,V,N*59
$GNGLL,,,,,045640.00,V,N*57
$GNGLL,,,,,045641.00,V,N*56
$GNGLL,,,,,045642.00,V,N*55
$GNGLL,,,,,045643.00,V,N*54
$GNGLL,,,,,045644.00,V,N*53
$GNGLL,,,,,045645.00,V,N*52
$GNGLL,,,,,045646.00,V,N*51
$GNGLL,,,,,045647.00,V,N*50
$GNGLL,,,,,045648.00,V,N*5F
$GNGLL,,,,,045649.00,V,N*5E
$GNGLL,,,,,045650.00,V,N*56
$GNGLL,,,,,045651.00,V,N*57
$GNGLL,,,,,045652.00,V,N*54
$GNGLL,,,,,045653.00,V,N*55
$GNGLL,,,,,045654.00,V,N*52
$GNGLL,,,,,045655.00,V,N*53
$GNGLL,,,,,045656.00,V,N*50
$GNGLL,,,,,045657.00,V,N*51
$GNGLL,,,,,045658.00,V,N*5E
$GNGLL,,,,,045659.00,V,N*5F
$GNGLL,,,,,045700.00,V,N*52
$GNGLL,,,,,045701.00,V,N*53
$GNGLL,,,,,045702.00,V,N*50
$GNGLL,,,,,045703.00,V,N*51
$GNGLL,,,,,045704.00,V,N*56
$GNGLL,,,,,045705.00,V,N*57
$GNGLL,,,,,045706.00,V,N*54
$GNGLL,,,,,045707.00,V,N*55
$GNGLL,,,,,045708.00,V,N*5A
$GNGLL,,,,,045709.00,V,N*5B
$GNGLL,,,,,045710.00,V,N*53
$GNGLL,,,,,045711.00,V,N*52
$GNGLL,,,,,045712.00,V,N*51
$GNGLL,,,,,045713.00,V,N*50
$GNGLL,,,,,045714.00,V,N*57
$GNGLL,,,,,045715.00,V,N*56
$GNGLL,,,,,045716.00,V,N*55
$GNGLL,,,,,045717.00,V,N*54
$GNGLL,,,,,045718.00,V,N*5B
$GNGLL,,,,,045719.00,V,N*5A
$GNGLL,,,,,045720.00,V,N*50
$GNGLL,,,,,045721.00,V,N*51
$GNGLL,,,,,045722.00,V,N*52
$GNGLL,,,,,045723.00,V,N*53
$GNGLL,,,,,045724.00,V,N*54
$GNGLL,,,,,045725.00,V,N*55
$GNGLL,,,,,045726.00,V,N*56
$GNGLL,,,,,045727.00,V,N*57
$GNGLL,,,,,045728.00,V,N*58
$GNGLL,,,,,045729.00,V,N*59
$GNGLL,,,,,045730.00,V,N*51
$GNGLL,,,,,045731.00,V,N*50
$GNGLL,,,,,045732.00,V,N*53
$GNGLL,,,,,045733.00,V,N*52
$GNGLL,,,,,045734.00,V,N*55
$GNGLL,,,,,045735.00,V,N*54
$GNGLL,,,,,045736.00,V,N*57
$GNGLL,,,,,045737.00,V,N*56
$GNGLL,,,,,045738.00,V,N*59
$GNGLL,,,,,045739.00,V,N*58
$GNGLL,,,,,045740.00,V,N*56
$GNGLL,,,,,045741.00,V,N*57
$GNGLL,,,,,045742.00,V,N*54
$GNGLL,,,,,045743.00,V,N*55
$GNGLL,,,,,045744.00,V,N*52
$GNGLL,,,,,045745.00,V,N*53
$GNGLL,,,,,045746.00,V,N*50
$GNGLL,,,,,045747.00,V,N*51
$GNGLL,,,,,045748.00,V,N*5E
$GNGLL,,,,,045749.00,V,N*5F
$GNGLL,,,,,045750.00,V,N*57
$GNGLL,,,,,045751.00,V,N*56
$GNGLL,,,,,045752.00,V,N*55
$GNGLL,,,,,045753.00,V,N*54
$GNGLL,,,,,045754.00,V,N*53
$GNGLL,,,,,045755.00,V,N*52
$GNGLL,,,,,045756.00,V,N*51
$GNGLL,,,,,045757.00,V,N*50
$GNGLL,,,,,045758.00,V,N*5F
$GNGLL,,,,,045759.00,V,N*5E
$GNGLL,,,,,045800.00,V,N*5D
$GNGLL,,,,,045801.00,V,N*5C
$GNGLL,3944.52872,N,10511.63152,W,045802.00,A,A*69
$GNGLL,3944.52893,N,10511.63065,W,045803.00,A,A*62
$GNGLL,3944.52889,N,10511.62993,W,045804.00,A,A*6F
$GNGLL,3944.52936,N,10511.63034,W,045805.00,A,A*6E
$GNGLL,3944.53021,N,10511.63026,W,045806.00,A,A*60
$GNGLL,3944.53089,N,10511.62967,W,045807.00,A,A*6E
$GNGLL,3944.53128,N,10511.62931,W,045808.00,A,A*68
$GNGLL,3944.53167,N,10511.62844,W,045809.00,A,A*61
$GNGLL,3944.53176,N,10511.62810,W,045810.00,A,A*68
$GNGLL,3944.53200,N,10511.62781,W,045811.00,A,A*6C
$GNGLL,3944.53373,N,10511.62686,W,045811.00,A,A*6F
$GNGLL,,,,,045812.00,V,N*5E
$GNGLL,3944.53312,N,10511.62848,W,045813.00,A,A*66
$GNGLL,,,,,045814.00,V,N*58
$GNGLL,,,,,045815.00,V,N*59
$GNGLL,,,,,045816.00,V,N*5A
$GNGLL,,,,,045817.00,V,N*5B
$GNGLL,,,,,045818.00,V,N*54
$GNGLL,,,,,045819.00,V,N*55
$GNGLL,,,,,045820.00,V,N*5F
$GNGLL,3944.53091,N,10511.63785,W,045821.00,A,A*60
$GNGLL,3944.53364,N,10511.64194,W,045822.00,A,A*6B
$GNGLL,3944.53748,N,10511.64336,W,045823.00,A,A*6A
$GNGLL,3944.54025,N,10511.64604,W,045824.00,A,A*62
$GNGLL,3944.54450,N,10511.64772,W,045825.00,A,A*65
$GNGLL,3944.54462,N,10511.64909,W,045826.00,A,A*65
$GNGLL,3944.54644,N,10511.65019,W,045827.00,A,A*6B
$GNGLL,3944.55073,N,10511.65105,W,045828.00,A,A*6B
$GNGLL,3944.53654,N,10511.64906,W,045829.00,A,A*65
$GNGLL,3944.53208,N,10511.64700,W,045830.00,A,A*68
$GNGLL,3944.53151,N,10511.64524,W,045831.00,A,A*62
$GNGLL,3944.53039,N,10511.64401,W,045832.00,A,A*68
$GNGLL,3944.53153,N,10511.64225,W,045833.00,A,A*64
$GNGLL,3944.53137,N,10511.64096,W,045834.00,A,A*6B
$GNGLL,3944.53026,N,10511.64015,W,045835.00,A,A*60
$GNGLL,3944.53006,N,10511.63948,W,045836.00,A,A*67
$GNGLL,3944.53100,N,10511.63934,W,045837.00,A,A*6A
$GNGLL,3944.53101,N,10511.63889,W,045838.00,A,A*63
