$GNRMC,200631.00,A,3933.86156,N,10506.30825,W,0.732,,130321,,,A*76
$GNVTG,,T,,M,0.732,N,1.356,K,A*3A
$GNGGA,200631.00,3933.86156,N,10506.30825,W,1,05,1.75,1685.6,M,-21.7,M,,*4D
$GNGSA,A,3,13,08,07,,,,,,,,,,3.47,1.75,3.00*11
$GNGSA,A,3,73,82,,,,,,,,,,,3.47,1.75,3.00*12
$GPGSV,2,1,08,07,47,128,29,08,22,045,26,11,,,23,13,36,299,15*4B
$GPGSV,2,2,08,14,65,310,17,15,09,320,26,17,42,206,,21,29,076,22*76
$GLGSV,3,1,09,65,14,323,22,71,11,231,,72,23,279,20,73,59,047,28*67
$GLGSV,3,2,09,74,41,322,23,80,20,096,,82,16,027,33,83,52,065,*6B
$GLGSV,3,3,09,84,38,161,*5D
$GNGLL,3933.86156,N,10506.30825,W,200631.00,A,A*6B
$GNRMC,200632.00,A,3933.86156,N,10506.30819,W,0.444,,130321,,,A*78
$GNVTG,,T,,M,0.444,N,0.823,K,A*30
$GNGGA,200632.00,3933.86156,N,10506.30819,W,1,05,1.75,1685.4,M,-21.7,M,,*43
$GNGSA,A,3,13,08,07,,,,,,,,,,3.47,1.75,3.00*11
$GNGSA,A,3,73,82,,,,,,,,,,,3.47,1.75,3.00*12
$GPGSV,2,1,08,07,47,128,29,08,22,045,26,11,,,22,13,36,299,18*47
$GPGSV,2,2,08,14,65,310,17,15,09,320,26,17,42,206,,21,29,076,22*76
$GLGSV,3,1,09,65,14,323,22,71,11,231,,72,23,279,20,73,59,047,27*68
$GLGSV,3,2,09,74,41,322,23,80,20,096,,82,16,027,33,83,52,065,*6B
$GLGSV,3,3,09,84,38,161,*5D
$GNGLL,3933.86156,N,10506.30819,W,200632.00,A,A*67
$GNRMC,200633.00,A,3933.86150,N,10506.30901,W,0.768,,130321,,,A*7A
$GNVTG,,T,,M,0.768,N,1.422,K,A*31
$GNGGA,200633.00,3933.86150,N,10506.30901,W,1,05,1.75,1685.0,M,-21.7,M,,*48
$GNGSA,A,3,13,08,07,,,,,,,,,,3.47,1.75,3.00*11
$GNGSA,A,3,73,82,,,,,,,,,,,3.47,1.75,3.00*12
$GPGSV,2,1,08,07,47,128,29,08,22,045,26,11,,,22,13,36,299,18*47
$GPGSV,2,2,08,14,65,310,16,15,09,320,26,17,42,206,,21,29,076,22*77
$GLGSV,3,1,09,65,14,323,22,71,11,231,,72,23,279,19,73,59,047,27*62
$GLGSV,3,2,09,74,41,322,23,80,20,096,,82,16,027,33,83,52,065,*6B
$GLGSV,3,3,09,84,38,161,*5D
$GNGLL,3933.86150,N,10506.30901,W,200633.00,A,A*68
$GNRMC,200634.00,A,3933.86148,N,10506.30921,W,0.752,,130321,,,A*7F
$GNVTG,,T,,M,0.752,N,1.393,K,A*35
$GNGGA,200634.00,3933.86148,N,10506.30921,W,1,05,1.75,1684.8,M,-21.7,M,,*4D
$GNGSA,A,3,13,08,07,,,,,,,,,,3.47,1.75,3.00*11
$GNGSA,A,3,73,82,,,,,,,,,,,3.47,1.75,3.00*12
$GPGSV,2,1,08,07,47,128,29,08,22,045,26,11,,,21,13,36,299,18*44
$GPGSV,2,2,08,14,65,310,17,15,09,320,25,17,42,206,,21,29,076,22*75
$GLGSV,3,1,09,65,14,323,22,71,11,231,,72,23,279,20,73,59,047,27*68
$GLGSV,3,2,09,74,41,322,22,80,20,096,,82,16,027,33,83,52,065,*6A
$GLGSV,3,3,09,84,38,161,*5D
$GNGLL,3933.86148,N,10506.30921,W,200634.00,A,A*64
$GNRMC,200635.00,A,3933.86150,N,10506.30922,W,0.572,,130321,,,A*74
$GNVTG,,T,,M,0.572,N,1.060,K,A*3A
$GNGGA,200635.00,3933.86150,N,10506.30922,W,1,05,1.75,1684.7,M,-21.7,M,,*49
$GNGSA,A,3,13,08,07,,,,,,,,,,3.47,1.75,3.00*11
$GNGSA,A,3,73,82,,,,,,,,,,,3.47,1.75,3.00*12
$GPGSV,2,1,08,07,47,128,29,08,22,045,26,11,,,22,13,36,299,18*47
$GPGSV,2,2,08,14,65,310,18,15,09,320,26,17,42,206,,21,29,076,22*79
$GLGSV,3,1,09,65,14,323,21,71,11,231,,72,23,279,20,73,59,047,27*6B
$GLGSV,3,2,09,74,41,322,22,80,20,096,,82,16,027,33,83,52,065,*6A
$GLGSV,3,3,09,84,38,161,*5D
$GNGLL,3933.86150,N,10506.30922,W,200635.00,A,A*6F
$GNRMC,200636.00,A,3933.86157,N,10506.30864,W,0.325,,130321,,,A*77
$GNVTG,,T,,M,0.325,N,0.602,K,A*3D
$GNGGA,200636.00,3933.86157,N,10506.30864,W,1,05,1.75,1684.7,M,-21.7,M,,*4E
$GNGSA,A,3,13,08,07,,,,,,,,,,3.47,1.75,3.00*11
$GNGSA,A,3,73,82,,,,,,,,,,,3.47,1.75,3.00*12
$GPGSV,2,1,08,07,47,128,29,08,22,045,25,11,,,21,13,36,299,18*47
$GPGSV,2,2,08,14,65,310,17,15,09,320,25,17,42,206,,21,29,076,22*75
$GLGSV,3,1,09,65,14,323,21,71,11,231,,72,23,279,20,73,59,047,26*6A
$GLGSV,3,2,09,74,41,322,22,80,20,096,,82,16,027,34,83,52,065,*6D
$GLGSV,3,3,09,84,38,161,*5D
$GNGLL,3933.86157,N,10506.30864,W,200636.00,A,A*68
$GNRMC,200637.00,A,3933.86161,N,10506.30853,W,0.150,,130321,,,A*77
$GNVTG,,T,,M,0.150,N,0.277,K,A*3B
$GNGGA,200637.00,3933.86161,N,10506.30853,W,1,05,1.75,1684.6,M,-21.7,M,,*4F
$GNGSA,A,3,13,08,07,,,,,,,,,,3.47,1.75,3.00*11
$GNGSA,A,3,73,82,,,,,,,,,,,3.47,1.75,3.00*12
$GPGSV,2,1,08,07,47,128,29,08,22,045,25,11,,,21,13,36,299,16*49
$GPGSV,2,2,08,14,65,310,16,15,09,320,25,17,42,206,,21,29,076,22*74
$GLGSV,3,1,09,65,14,323,22,71,11,231,,72,23,279,20,73,59,047,26*69
$GLGSV,3,2,09,74,41,322,21,80,20,096,,82,16,027,34,83,52,065,*6E
$GLGSV,3,3,09,84,38,161,*5D
$GNGLL,3933.86161,N,10506.30853,W,200637.00,A,A*68
$GNRMC,200638.00,A,3933.86167,N,10506.30843,W,0.067,,130321,,,A*7A
$GNVTG,,T,,M,0.067,N,0.125,K,A*3A
$GNGGA,200638.00,3933.86167,N,10506.30843,W,1,05,1.75,1684.5,M,-21.7,M,,*44
$GNGSA,A,3,13,08,07,,,,,,,,,,3.47,1.75,3.00*11
$GNGSA,A,3,73,82,,,,,,,,,,,3.47,1.75,3.00*12
$GPGSV,2,1,08,07,47,128,29,08,22,045,25,11,,,20,13,36,299,08*47
$GPGSV,2,2,08,14,65,310,17,15,09,320,25,17,42,206,,21,29,076,22*75
$GLGSV,3,1,09,65,14,323,22,71,11,231,,72,23,279,20,73,59,047,25*6A
$GLGSV,3,2,09,74,41,322,22,80,20,096,,82,16,027,34,83,52,065,*6D
$GLGSV,3,3,09,84,38,161,*5D
$GNGLL,3933.86167,N,10506.30843,W,200638.00,A,A*60