$GPRMC,144210.01,A,5101.575418,N,00342.828643,E,0.5,351.4,210423,2.0,W,A,V*55
$GPGSV,4,3,13,30,08,324,15,07,14,292,,13,02,007,,15,08,033,,1*6B
$GPGSV,4,4,13,26,13,171,,1*57
$GPGGA,144210.01,5101.575418,N,00342.828643,E,1,08,1.7,0.1,M,47.0,M,,*6A
$GAGGA,144210.01,5101.575418,N,00342.828643,E,1,00,1.7,0.1,M,47.0,M,,*73
$GPVTG,351.4,T,353.4,M,0.5,N,1.0,K,A*25
$GAVTG,351.4,T,353.4,M,0.5,N,1.0,K,A*34
$GARMC,144210.01,A,5101.575418,N,00342.828643,E,0.5,351.4,210423,2.0,W,A,V*44
$GPGSA,A,3,02,08,16,18,21,23,27,30,,,,,2.4,1.7,1.6,1*28
$GAGSA,A,3,,,,,,,,,,,,,2.4,1.7,1.6,3*3B
$GPRMC,,V,,,,,,,,,,N,V*29
$GPGSV,4,1,13,02,22,066,,07,14,292,,08,53,293,,10,54,123,,1*6C
$GPGSV,4,2,13,13,02,007,,15,08,032,,16,43,185,,18,19,063,,1*62
$GPGSV,4,3,13,21,23,248,,23,45,066,,26,11,171,,27,87,073,,1*60
$GPGSV,4,4,13,30,09,323,,1*5E
$GPGGA,,,,,,0,,,,,,,,*66
$GAGGA,,,,,,0,,,,,,,,*77
$GPVTG,,T,,M,,N,,K,N*2C
$GAVTG,,T,,M,,N,,K,N*3D
$GARMC,,V,,,,,,,,,,N,V*38
$GPGSA,A,1,,,,,,,,,,,,,,,,*32
$GAGSA,A,1,,,,,,,,,,,,,,,,*23
$GPRMC,,V,,,,,,,,,,N,V*29
$GPGSV,4,1,13,02,22,066,,07,14,292,,08,53,293,,10,54,123,,1*6C
$GAGGA,,,,,,0,,,,,,,,*77
$GPVTG,,T,,M,,N,,K,N*2C
$GAVTG,,T,,M,,N,,K,N*3D
$GPGSV,4,1,13,02,22,066,,07,14,292,,08,53,293,,10,54,123,,1*6C
$GPGSV,4,2,13,13,02,007,,15,08,032,,16,43,185,,18,19,063,,1*62
$GPGSV,4,3,13,21,23,248,,23,45,066,,26,11,171,,27,87,073,,1*60
$GPGSV,4,4,13,30,09,323,,1*5E
$GPGGA,,,,,,0,,,,,,,,*66
$GAGGA,,,,,,0,,,,,,,,*77
$GPVTG,,T,,M,,N,,K,N*2C
$GAVTG,,T,,M,,N,,K,N*3D
$GARMC,,V,,,,,,,,,,N,V*38
$GPGSA,A,1,,,,,,,,,,,,,,,,*32
$GAGSA,A,1,,,,,,,,,,,,,,,,*23
$GPRMC,,V,,,,,,,,,,N,V*29
$GPGSV,4,1,13,02,22,066,,07,14,292,,08,53,293,,10,54,123,,1*6C
$GPGGA,,,,,,0,,,,,,,,*66
$GAGGA,,,,,,0,,,,,,,,*77
$GPVTG,,T,,M,,N,,K,N*2C
$GAVTG,,T,,M,,N,,K,N*3D
$GPGSV,4,1,13,27,87,073,21,02,22,066,,07,14,292,,08,53,293,,1*61
$GAVTG,,T,,M,,N,,K,N*3D
$GARMC,,V,,,,,,,,,,N,V*38
$GPGSA,A,1,,,,,,,,,,,,,,,,*32
$GAGSA,A,1,,,,,,,,,,,,,,,,*23
$GPRMC,,V,,,,,,,,,,N,V*29
$GPGSV,4,1,13,27,87,073,21,02,22,066,,07,14,292,,08,53,293,,1*61
$GPVTG,,T,,M,,N,,K,N*2C
$GAVTG,,T,,M,,N,,K,N*3D
$GARMC,,V,,,,,,,,,,N,V*38
$GPGSV,4,1,13,21,23,248,20,27,87,073,21,02,22,066,,07,14,292,,1*69
$GPGSV,4,2,13,08,53,293,,10,54,123,,13,02,007,,15,08,032,,1*6C
$GPGSV,4,3,13,16,43,185,,18,19,063,,23,45,066,,26,11,171,,1*6A
$GPGSV,4,4,13,30,09,323,,1*5E
$GPGGA,,,,,,0,,,,,,,,*66
$GAGGA,,,,,,0,,,,,,,,*77
$GPVTG,,T,,M,,N,,K,N*2C
$GAVTG,,T,,M,,N,,K,N*3D
$GARMC,,V,,,,,,,,,,N,V*38
$GPGSA,A,1,,,,,,,,,,,,,,,,*32
$GAGSA,A,1,,,,,,,,,,,,,,,,*23
$GPRMC,,V,,,,,,,,,,N,V*29
$GPGSV,4,1,13,21,23,248,20,27,87,073,21,02,22,066,,07,14,292,,1*69
$GAVTG,,T,,M,,N,,K,N*3D
$GPGSV,4,1,13,21,23,248,20,27,87,073,22,02,22,066,,07,14,292,,1*6A
$GPGSV,4,2,13,08,53,293,,10,54,123,,13,02,007,,15,08,032,,1*6C
$GPGSV,4,3,13,16,43,185,,18,19,063,,23,45,066,,26,11,171,,1*6A
$GPGSV,4,4,13,30,09,323,,1*5E
$GPGGA,,,,,,0,,,,,,,,*66
$GAGGA,,,,,,0,,,,,,,,*77
$GPVTG,,T,,M,,N,,K,N*2C
$GAVTG,,T,,M,,N,,K,N*3D
$GARMC,,V,,,,,,,,,,N,V*38
$GPGSA,A,1,,,,,,,,,,,,,,,,*32
$GAGSA,A,1,,,,,,,,,,,,,,,,*23
$GPRMC,,V,,,,,,,,,,N,V*29
$GPGSV,4,2,13,08,53,293,,10,54,123,,13,02,007,,15,08,032,,1*6C
$GPGSV,4,1,13,08,53,293,21,21,23,248,20,23,45,066,21,27,87,073,20,1*67
$GPGSV,4,2,13,02,22,066,,07,14,292,,10,54,123,,13,02,007,,1*6E
$GPGSV,4,3,13,15,08,032,,16,43,185,,18,19,063,,26,11,171,,1*67
$GPGSV,4,4,13,30,09,323,,1*5E
$GPGGA,144419.09,,,,,0,,,,,,,,*4C
$GAGGA,144419.09,,,,,0,,,,,,,,*5D
$GPVTG,,T,,M,,N,,K,N*2C
$GAVTG,,T,,M,,N,,K,N*3D
$GARMC,,V,,,,,,,,,,N,V*38
$GPGSA,A,1,,,,,,,,,,,,,,,,*32
$GAGSA,A,1,,,,,,,,,,,,,,,,*23
$GPRMC,,V,,,,,,,,,,N,V*29
$GPGGA,144419.99,,,,,0,,,,,,,,*45
$GAGGA,144419.99,,,,,0,,,,,,,,*54
$GPVTG,,T,,M,,N,,K,N*2C
$GAVTG,,T,,M,,N,,K,N*3D
$GARMC,,V,,,,,,,,,,N,V*38
$GPGSA,A,1,,,,,,,,,,,,,,,,*32
$GAGSA,A,1,,,,,,,,,,,,,,,,*23
$GPRMC,,V,,,,,,,,,,N,V*29
$GPGSV,4,1,13,08,53,293,20,21,23,248,20,23,45,066,21,27,87,082,21,1*69
$GPVTG,,T,,M,,N,,K,N*2C
$GPGSA,A,1,,,,,,,,,,,,,,,,*32
$GPGSV,4,2,13,23,45,066,21,27,87,082,21,07,13,291,,10,54,123,,1*6F
$GPGGA,144421.99,,,,,0,,,,,,,,*4E
$GAGGA,144421.99,,,,,0,,,,,,,,*5F
$GAVTG,,T,,M,,N,,K,N*3D
$GARMC,,V,,,,,,,,,,N,V*38
$GAGSA,A,1,,,,,,,,,,,,,,,,*23
$GPRMC,,V,,,,,,,,,,N,V*29
$GPGSV,4,1,13,02,22,066,18,08,53,293,21,18,19,063,19,21,23,248,20,1*6F
$GPGSV,4,3,13,13,02,007,,15,08,032,,16,43,185,,26,11,171,,1*64
$GPVTG,,T,,M,,N,,K,N*2C
$GPGSA,A,1,,,,,,,,,,,,,,,,*32
$GPGSV,4,1,13,02,22,066,18,08,53,293,21,18,19,063,19,21,23,248,21,1*6E
$GPGSV,4,4,13,30,09,323,,1*5E
$GPGGA,144424.09,,,,,0,,,,,,,,*42
$GPVTG,,T,,M,,N,,K,N*2C
$GPGSA,A,1,,,,,,,,,,,,,,,,*32
$GPGSV,4,1,13,02,22,066,17,08,53,293,21,18,19,063,19,21,23,248,21,1*61
$GARMC,,V,,,,,,,,,,N,V*38
$GPGSA,A,1,,,,,,,,,,,,,,,,*32
$GAGSA,A,1,,,,,,,,,,,,,,,,*23
$GPRMC,,V,,,,,,,,,,N,V*29
$GPGSV,4,1,13,02,22,066,17,08,53,293,20,18,19,063,19,21,23,248,20,1*61
$GPGSV,4,2,13,23,45,066,20,27,87,082,20,07,13,291,,10,54,123,,1*6F
$GPGSV,4,3,13,13,02,007,,15,08,032,,16,43,185,,26,11,171,,1*64
$GPGSV,4,4,13,30,09,323,,1*5E
$GPGGA,144426.09,,,,,0,,,,,,,,*40
$GAGGA,144426.09,,,,,0,,,,,,,,*51
$GPVTG,,T,,M,,N,,K,N*2C
$GAVTG,,T,,M,,N,,K,N*3D
$GARMC,,V,,,,,,,,,,N,V*38
$GPGSA,A,1,,,,,,,,,,,,,,,,*32
$GAGSA,A,1,,,,,,,,,,,,,,,,*23
$GPRMC,,V,,,,,,,,,,N,V*29
$GPGSV,4,1,13,02,22,066,17,08,53,293,20,18,19,063,19,21,23,248,20,1*61
$GAVTG,,T,,M,,N,,K,N*3D
$GPGSV,4,1,13,02,22,066,17,08,53,293,20,10,54,123,16,18,19,063,19,1*68
$GPGSV,4,2,13,21,23,248,20,23,45,066,20,27,87,082,20,07,13,291,,1*61
$GPGSV,4,3,13,13,02,007,,15,08,032,,16,43,185,,26,11,171,,1*64
$GPGSV,4,4,13,30,09,323,,1*5E
$GPGGA,144428.09,,,,,0,,,,,,,,*4E
$GAGGA,144428.09,,,,,0,,,,,,,,*5F
$GPVTG,,T,,M,,N,,K,N*2C
$GAVTG,,T,,M,,N,,K,N*3D
$GARMC,,V,,,,,,,,,,N,V*38
$GPGSA,A,1,,,,,,,,,,,,,,,,*32
$GAGSA,A,1,,,,,,,,,,,,,,,,*23
$GPRMC,,V,,,,,,,,,,N,V*29
$GPGSV,4,1,13,02,21,066,17,08,54,293,20,10,54,123,16,18,19,063,19,1*6C
$GPVTG,,T,,M,,N,,K,N*2C
$GARMC,,V,,,,,,,,,,N,V*38
$GPGSA,A,1,,,,,,,,,,,,,,,,*32
$GPGSV,4,1,13,02,21,066,17,08,54,293,20,10,54,123,15,16,43,185,16,1*68
$GPGSV,4,2,13,18,19,063,19,21,23,248,22,23,45,066,20,27,87,084,17,1*62
$GPGSV,4,3,13,07,13,291,,13,02,007,,15,08,032,,26,11,171,,1*67
$GPGSV,4,4,13,30,09,323,,1*5E
$GPGGA,144430.01,,,,,0,,,,,,,,*4F
$GAGGA,144430.01,,,,,0,,,,,,,,*5E
$GPVTG,,T,,M,,N,,K,N*2C
$GAVTG,,T,,M,,N,,K,N*3D
$GARMC,,V,,,,,,,,,,N,V*38
$GPGSA,A,1,,,,,,,,,,,,,,,,*32
$GAGSA,A,1,,,,,,,,,,,,,,,,*23
$GPRMC,,V,,,,,,,,,,N,V*29
$GPGSV,4,1,13,02,21,066,17,08,54,293,20,10,54,123,15,16,43,185,15,1*6B
$GPVTG,290.7,T,292.7,M,0.9,N,1.7,K,A*2E
$GPGSV,4,1,13,02,21,066,17,08,54,293,20,10,54,123,15,16,43,185,15,1*6B
$GPGSV,4,2,13,18,19,063,19,21,23,248,20,23,45,066,21,27,87,084,17,1*61
$GPGSV,4,3,13,07,13,291,,13,02,007,,15,08,032,,26,11,171,,1*67
$GPGSV,4,4,13,30,09,323,,1*5E
$GPGGA,144432.01,,,,,0,,,,,,,,*4D
$GAGGA,144432.01,,,,,0,,,,,,,,*5C
$GPVTG,,T,,M,,N,,K,N*2C
$GAVTG,,T,,M,,N,,K,N*3D
$GARMC,,V,,,,,,,,,,N,V*38
$GPGSA,A,1,,,,,,,,,,,,,,,,*32
$GAGSA,A,1,,,,,,,,,,,,,,,,*23
$GPRMC,,V,,,,,,,,,,N,V*29
$GPGSV,4,1,13,02,21,066,17,08,54,293,18,10,54,123,15,16,43,185,18,1*6D
$GAVTG,,T,,M,,N,,K,N*3D
$GPGSV,4,1,13,02,21,066,17,08,54,293,18,10,54,123,15,16,43,185,18,1*6D
$GPGSV,4,2,13,18,19,063,19,21,23,248,20,23,45,066,22,27,87,084,17,1*62
$GPGSV,4,3,13,07,13,291,,13,02,007,,15,08,032,,26,11,171,,1*67
$GPGSV,4,4,13,30,09,323,,1*5E
$GPGGA,144433.99,,,,,0,,,,,,,,*4D
$GAGGA,144433.99,,,,,0,,,,,,,,*5C
$GPVTG,,T,,M,,N,,K,N*2C
$GAVTG,,T,,M,,N,,K,N*3D
$GARMC,,V,,,,,,,,,,N,V*38
$GPGSA,A,1,,,,,,,,,,,,,,,,*32
$GAGSA,A,1,,,,,,,,,,,,,,,,*23
$GPRMC,,V,,,,,,,,,,N,V*29
$GPGSV,4,1,13,02,21,066,17,08,54,293,18,10,54,123,15,16,43,185,18,1*6D
$GAGGA,144434.99,,,,,0,,,,,,,,*5B
$GPVTG,,T,,M,,N,,K,N*2C
$GAVTG,,T,,M,,N,,K,N*3D
$GPGSV,4,1,13,02,21,066,17,08,54,293,19,10,54,123,15,16,43,185,18,1*6C
$GAGGA,144435.98,5101.589697,N,00342.806173,E,1,00,1.5,36.2,M,47.0,M,,*48
$GPGSV,4,1,13,02,21,066,17,08,54,293,19,10,54,123,15,16,43,185,18,1*6C
$GPGSV,4,2,13,18,19,063,19,21,23,248,21,23,45,066,20,27,87,084,18,1*6E
$GPGSV,4,3,13,07,13,291,,13,02,007,,15,08,032,,26,11,171,,1*67
$GPGSV,4,4,13,30,09,323,,1*5E
$GPGGA,144437.01,,,,,0,,,,,,,,*48
$GAGGA,144437.01,,,,,0,,,,,,,,*59
$GPVTG,,T,,M,,N,,K,N*2C
$GAVTG,,T,,M,,N,,K,N*3D
$GARMC,,V,,,,,,,,,,N,V*38
$GPGSA,A,1,,,,,,,,,,,,,,,,*32
$GAGSA,A,1,,,,,,,,,,,,,,,,*23
$GPRMC,,V,,,,,,,,,,N,V*29
$GPGSV,4,1,13,02,21,066,17,08,54,293,21,10,54,123,15,16,43,185,18,1*67
$GAGGA,144438.01,,,,,0,,,,,,,,*56
$GARMC,,V,,,,,,,,,,N,V*38
$GPGSA,A,1,,,,,,,,,,,,,,,,*32
$GPGSV,4,1,13,02,21,066,17,08,54,293,21,10,54,123,16,16,43,185,18,1*64
$GPGSV,4,2,13,18,19,063,16,21,23,248,21,23,45,066,21,27,87,084,20,1*6B
$GPGGA,144439.01,,,,,0,,,,,,,,*46
$GPVTG,,T,,M,,N,,K,N*2C
$GAVTG,,T,,M,,N,,K,N*3D
$GARMC,,V,,,,,,,,,,N,V*38
$GAGSA,A,1,,,,,,,,,,,,,,,,*23
$GPRMC,,V,,,,,,,,,,N,V*29
$GPGSV,4,1,13,02,21,066,16,08,54,293,21,10,54,123,16,16,43,185,18,1*65
$GARMC,,V,,,,,,,,,,N,V*38
$GPGSA,A,1,,,,,,,,,,,,,,,,*32
$GAGSA,A,1,,,,,,,,,,,,,,,,*23
$GPRMC,,V,,,,,,,,,,N,V*29
$GPGSV,4,1,13,02,21,066,16,08,54,293,19,10,54,123,16,16,43,185,18,1*6E
$GPGSV,4,2,13,18,19,063,16,21,23,248,22,23,45,066,22,27,87,084,20,1*6B
$GPGSV,4,3,13,07,13,291,,13,02,007,,15,08,032,,26,11,171,,1*67
$GPGSV,4,4,13,30,09,323,,1*5E
$GPGGA,144441.01,,,,,0,,,,,,,,*49
$GAGGA,144441.01,,,,,0,,,,,,,,*58
$GPVTG,,T,,M,,N,,K,N*2C
$GAVTG,,T,,M,,N,,K,N*3D
$GARMC,,V,,,,,,,,,,N,V*38
$GPGSA,A,1,,,,,,,,,,,,,,,,*32
$GAGSA,A,1,,,,,,,,,,,,,,,,*23
$GPRMC,,V,,,,,,,,,,N,V*29
$GPGSV,4,1,13,02,21,066,16,08,54,293,19,10,54,123,16,16,43,185,18,1*6E
$GAGGA,144442.01,,,,,0,,,,,,,,*5B
$GPGSA,A,1,,,,,,,,,,,,,,,,*32
$GPGSV,4,1,13,02,21,066,16,08,54,293,19,10,54,123,16,16,43,185,15,1*63
$GAGGA,144443.01,,,,,0,,,,,,,,*5A
$GAGSA,A,1,,,,,,,,,,,,,,,,*23
$GPRMC,,V,,,,,,,,,,N,V*29
$GPGSV,4,1,13,02,21,066,16,08,54,293,19,10,54,123,17,16,43,185,15,1*62
$GPGSV,4,2,13,18,19,063,17,21,23,248,20,23,45,066,21,27,87,084,20,1*6B
$GPGSV,4,3,13,07,13,291,,13,02,007,,15,08,032,,26,11,171,,1*67
$GPGSV,4,4,13,30,09,323,,1*5E
$GPGGA,144444.01,,,,,0,,,,,,,,*4C
$GAGGA,144444.01,,,,,0,,,,,,,,*5D
$GPVTG,,T,,M,,N,,K,N*2C
$GAVTG,,T,,M,,N,,K,N*3D
$GARMC,,V,,,,,,,,,,N,V*38
$GPGSA,A,1,,,,,,,,,,,,,,,,*32
$GAGSA,A,1,,,,,,,,,,,,,,,,*23
$GPRMC,,V,,,,,,,,,,N,V*29
$GPGSV,4,1,13,02,21,066,16,08,54,293,19,10,54,123,17,16,43,185,15,1*62
$GPGSV,4,1,13,02,21,066,16,08,54,293,20,10,54,123,17,16,43,185,15,1*68
$GPGSV,4,2,13,18,19,063,17,21,23,248,21,23,45,066,21,27,87,084,17,1*6E
$GPGSV,4,3,13,07,13,291,,13,02,007,,15,08,032,,26,11,171,,1*67
$GPGSV,4,4,13,30,09,323,,1*5E
$GPGGA,144446.01,,,,,0,,,,,,,,*4E
$GAGGA,144446.01,,,,,0,,,,,,,,*5F
$GPVTG,,T,,M,,N,,K,N*2C
$GAVTG,,T,,M,,N,,K,N*3D
$GARMC,,V,,,,,,,,,,N,V*38
$GPGSA,A,1,,,,,,,,,,,,,,,,*32
$GAGSA,A,1,,,,,,,,,,,,,,,,*23
$GPRMC,,V,,,,,,,,,,N,V*29
$GPGSV,4,1,13,02,21,066,16,08,54,293,20,10,54,123,17,16,43,185,15,1*68
$GPGSV,4,2,13,18,19,063,17,21,23,248,19,23,45,066,22,27,87,084,17,1*66
$GPGGA,144447.01,,,,,0,,,,,,,,*4F
$GAGGA,144447.01,,,,,0,,,,,,,,*5E
$GPVTG,,T,,M,,N,,K,N*2C
$GAVTG,,T,,M,,N,,K,N*3D
$GPGSA,A,1,,,,,,,,,,,,,,,,*32
$GPGSV,4,1,13,02,21,066,16,08,54,293,20,10,54,123,17,16,43,185,15,1*68
$GARMC,,V,,,,,,,,,,N,V*38
$GPGSV,4,1,13,02,21,066,16,08,54,293,20,10,54,123,17,16,43,185,15,1*68
$GPGSV,4,2,13,18,19,063,17,21,23,248,19,23,45,066,20,27,87,084,19,1*6A
$GPGSV,4,3,13,07,13,291,,13,02,007,,15,08,032,,26,11,171,,1*67
$GPGSV,4,4,13,30,09,323,,1*5E
$GPGGA,144449.01,,,,,0,,,,,,,,*41
$GAGGA,144449.01,,,,,0,,,,,,,,*50
$GPVTG,,T,,M,,N,,K,N*2C
$GAVTG,,T,,M,,N,,K,N*3D
$GARMC,,V,,,,,,,,,,N,V*38
$GPGSA,A,1,,,,,,,,,,,,,,,,*32
$GAGSA,A,1,,,,,,,,,,,,,,,,*23
$GPRMC,,V,,,,,,,,,,N,V*29
$GPGSV,4,1,13,02,21,066,16,08,54,293,20,10,54,123,17,16,43,185,15,1*68
$GARMC,,V,,,,,,,,,,N,V*38
$GPGSA,A,1,,,,,,,,,,,,,,,,*32
$GAGSA,A,1,,,,,,,,,,,,,,,,*23
$GPRMC,,V,,,,,,,,,,N,V*29
$GPGSV,4,1,13,02,21,066,18,08,54,293,22,10,54,123,17,16,43,185,16,1*67
$GPGSV,4,2,13,18,19,063,17,21,23,248,20,23,45,066,22,27,87,084,19,1*62
$GPGSV,4,3,13,07,13,291,,13,02,007,,15,08,032,,26,11,171,,1*67
$GPGSV,4,4,13,30,09,323,,1*5E
$GPGGA,144452.01,,,,,0,,,,,,,,*4B
$GAGGA,144452.01,,,,,0,,,,,,,,*5A
$GPVTG,,T,,M,,N,,K,N*2C
$GAVTG,,T,,M,,N,,K,N*3D
$GARMC,,V,,,,,,,,,,N,V*38
$GPGSA,A,1,,,,,,,,,,,,,,,,*32
$GAGSA,A,1,,,,,,,,,,,,,,,,*23
$GPRMC,,V,,,,,,,,,,N,V*29
$GPGSV,4,1,13,02,21,066,18,08,54,293,22,10,54,123,17,16,43,185,16,1*67
$GPVTG,156.4,T,158.4,M,3.4,N,6.3,K,A*2F
$GPGSV,4,1,13,02,21,066,18,08,54,293,19,10,54,123,17,16,43,185,16,1*6F
$GPGSV,4,2,13,18,18,063,17,21,23,248,19,23,45,066,21,27,87,087,18,1*68
$GPGSV,4,3,13,07,13,291,,13,02,007,,15,08,032,,26,11,171,,1*67
$GPGSV,4,4,13,30,09,323,,1*5E
$GPGGA,144454.01,,,,,0,,,,,,,,*4D
$GAGGA,144454.01,,,,,0,,,,,,,,*5C
$GPVTG,,T,,M,,N,,K,N*2C
$GAVTG,,T,,M,,N,,K,N*3D
$GARMC,,V,,,,,,,,,,N,V*38
$GPGSA,A,1,,,,,,,,,,,,,,,,*32
$GAGSA,A,1,,,,,,,,,,,,,,,,*23
$GPRMC,144456.01,A,5101.600344,N,00342.808716,E,0.9,156.4,210423,2.0,W,A,V*54
$GPGSV,4,1,13,02,21,066,18,08,54,293,19,10,54,123,17,16,43,185,16,1*6F
$GAGGA,144455.01,5101.595035,N,00342.797433,E,1,00,1.5,-15.9,M,47.0,M,,*6C
$GPGSV,4,1,13,02,21,066,17,08,54,293,21,10,54,123,17,16,43,185,18,1*65
$GPGSV,4,2,13,18,18,063,17,21,23,248,21,23,45,066,22,27,87,087,18,1*60
$GPGSV,4,3,13,07,13,291,,13,02,007,,15,08,032,,26,11,171,,1*67
$GPGSV,4,4,13,30,09,323,,1*5E
$GPGGA,144456.01,5101.600344,N,00342.808716,E,1,08,1.5,-72.1,M,47.0,M,,*78
$GAGGA,144456.01,5101.600344,N,00342.808716,E,1,00,1.5,-72.1,M,47.0,M,,*61
$GPVTG,156.4,T,158.4,M,0.9,N,1.7,K,A*22
$GAVTG,156.4,T,158.4,M,0.9,N,1.7,K,A*33
$GARMC,144456.01,A,5101.600344,N,00342.808716,E,0.9,156.4,210423,2.0,W,A,V*45
$GPGSA,A,3,02,08,10,16,18,21,23,27,,,,,2.3,1.5,1.7,1*2E
$GAGSA,A,3,,,,,,,,,,,,,2.3,1.5,1.7,3*3F
$GPRMC,144458.04,A,5101.599045,N,00342.816542,E,0.6,156.4,210423,2.0,W,A,V*5D
$GPGSV,4,1,13,02,21,066,17,08,54,293,21,10,54,123,17,16,43,185,18,1*65
$GAGGA,144457.04,5101.599535,N,00342.810213,E,1,00,1.5,-73.1,M,47.0,M,,*6E
$GPVTG,156.4,T,158.4,M,0.9,N,1.6,K,A*23
$GPGSV,4,1,13,02,21,066,17,08,54,293,21,10,54,123,17,16,43,185,18,1*65
$GPGSV,4,2,13,18,18,063,17,21,23,248,21,23,45,066,21,27,87,087,18,1*63
$GPGSV,4,3,13,07,13,291,,13,02,007,,15,08,032,,26,11,171,,1*67
$GPGSV,4,4,13,30,09,323,,1*5E
$GPGGA,144458.04,5101.599045,N,00342.816542,E,1,08,1.5,-54.2,M,47.0,M,,*79
$GAGGA,144458.04,5101.599045,N,00342.816542,E,1,00,1.5,-54.2,M,47.0,M,,*60
$GPVTG,156.4,T,158.4,M,0.6,N,1.2,K,A*28
$GAVTG,156.4,T,158.4,M,0.6,N,1.2,K,A*39
$GARMC,144458.04,A,5101.599045,N,00342.816542,E,0.6,156.4,210423,2.0,W,A,V*4C
$GPGSA,A,3,02,08,10,16,18,21,23,27,,,,,2.3,1.5,1.7,1*2E
$GAGSA,A,3,,,,,,,,,,,,,2.3,1.5,1.7,3*3F
$GPRMC,144500.02,A,5101.611446,N,00342.793288,E,1.0,27.6,210423,2.0,W,A,V*62
$GPGSV,4,1,13,02,21,066,17,08,54,293,20,10,54,123,18,16,43,185,18,1*6B
$GAGGA,144459.04,5101.610080,N,00342.794351,E,1,00,1.5,-18.4,M,47.0,M,,*65
$GPGSV,4,1,13,02,21,066,17,08,54,293,20,10,54,123,18,16,43,185,18,1*6B
$GPGSV,4,2,13,18,18,063,17,21,23,248,19,23,45,066,23,27,87,087,18,1*6A
$GPGSV,4,3,13,07,13,291,,13,02,007,,15,08,032,,26,11,171,,1*67
$GPGSV,4,4,13,30,09,323,,1*5E
$GPGGA,144500.02,5101.611446,N,00342.793288,E,1,08,1.5,-18.8,M,47.0,M,,*76
$GAGGA,144500.02,5101.611446,N,00342.793288,E,1,00,1.5,-18.8,M,47.0,M,,*6F
$GPVTG,27.6,T,29.6,M,1.0,N,1.8,K,A*25
$GAVTG,27.6,T,29.6,M,1.0,N,1.8,K,A*34
$GARMC,144500.02,A,5101.611446,N,00342.793288,E,1.0,27.6,210423,2.0,W,A,V*73
$GPGSA,A,3,02,08,10,16,18,21,23,27,,,,,2.3,1.5,1.7,1*2E
$GAGSA,A,3,,,,,,,,,,,,,2.3,1.5,1.7,3*3F
$GPRMC,,V,,,,,,,,,,N,V*29
$GPGSV,4,1,13,02,21,066,17,08,54,293,20,10,54,123,18,16,43,185,18,1*6B
$GAVTG,,T,,M,,N,,K,N*3D
$GPGSV,4,1,13,02,21,066,17,08,54,293,20,10,54,123,18,16,43,185,18,1*6B
$GPGSV,4,2,13,18,18,063,19,21,23,248,21,23,45,066,20,27,87,087,19,1*6D
$GPGGA,144502.02,,,,,0,,,,,,,,*4C
$GPVTG,,T,,M,,N,,K,N*2C
$GPGSA,A,1,,,,,,,,,,,,,,,,*32
$GPGSV,4,1,13,02,21,066,17,08,54,293,19,10,54,123,19,16,43,185,17,1*6F
$GPVTG,,T,,M,,N,,K,N*2C
$GAGSA,A,1,,,,,,,,,,,,,,,,*23
$GPRMC,,V,,,,,,,,,,N,V*29
$GPGSV,4,1,13,02,21,066,17,08,54,293,19,10,54,123,19,16,43,185,17,1*6F
$GPGSV,4,2,13,18,18,063,19,21,23,248,20,23,45,066,22,27,87,088,19,1*61
$GPGSV,4,3,13,07,13,291,,13,02,005,,15,08,032,,26,11,171,,1*65
$GPGSV,4,4,13,30,09,323,,1*5E
$GPGGA,144504.02,,,,,0,,,,,,,,*4A
$GAGGA,144504.02,,,,,0,,,,,,,,*5B
$GPVTG,,T,,M,,N,,K,N*2C
$GAVTG,,T,,M,,N,,K,N*3D
$GARMC,,V,,,,,,,,,,N,V*38
$GPGSA,A,1,,,,,,,,,,,,,,,,*32
$GAGSA,A,1,,,,,,,,,,,,,,,,*23
$GPRMC,144506.02,A,5101.570453,N,00342.838019,E,5.2,185.4,210423,2.0,W,A,V*5D
$GPGSV,4,1,13,02,21,066,17,08,54,293,20,10,54,123,21,16,43,185,17,1*6E
$GPVTG,189.4,T,191.4,M,6.1,N,11.3,K,A*1E
$GAVTG,189.4,T,191.4,M,6.1,N,11.3,K,A*0F
$GPGSV,4,1,13,02,21,066,17,08,54,293,20,10,54,123,21,16,43,185,17,1*6E
$GPGSV,4,2,13,18,18,063,19,21,23,248,21,23,45,066,22,27,87,088,17,1*6E
$GPGSV,4,3,13,07,13,291,,13,02,005,,15,08,032,,26,11,171,,1*65
$GPGSV,4,4,13,30,09,323,,1*5E
$GPGGA,144506.02,5101.570453,N,00342.838019,E,1,07,1.5,27.9,M,47.0,M,,*5B
$GAGGA,144506.02,5101.570453,N,00342.838019,E,1,00,1.5,27.9,M,47.0,M,,*4D
$GPVTG,185.4,T,187.4,M,5.2,N,9.7,K,A*28
$GAVTG,185.4,T,187.4,M,5.2,N,9.7,K,A*39
$GARMC,144506.02,A,5101.570453,N,00342.838019,E,5.2,185.4,210423,2.0,W,A,V*4C
$GPGSA,A,3,08,10,16,18,21,23,27,,,,,,2.4,1.5,1.8,1*24
$GAGSA,A,3,,,,,,,,,,,,,2.4,1.5,1.8,3*37
$GPRMC,,V,,,,,,,,,,N,V*29
$GPGSV,4,1,13,02,21,066,17,08,54,293,20,10,54,123,21,16,43,185,17,1*6E
$GAGGA,144507.02,5101.570824,N,00342.839551,E,1,00,1.5,27.2,M,47.0,M,,*43
$GPGSV,4,1,13,02,21,066,15,08,54,293,20,10,54,123,19,16,43,185,17,1*67
$GPGSV,4,2,13,18,18,063,19,21,23,248,21,23,45,066,24,27,87,088,17,1*68
$GPGSV,4,3,13,07,13,291,,13,02,005,,15,08,032,,26,11,171,,1*65
$GPGSV,4,4,13,30,09,323,,1*5E
$GPGGA,144508.02,,,,,0,,,,,,,,*46
$GAGGA,144508.02,,,,,0,,,,,,,,*57
$GPVTG,,T,,M,,N,,K,N*2C
$GAVTG,,T,,M,,N,,K,N*3D
$GARMC,,V,,,,,,,,,,N,V*38
$GPGSA,A,1,,,,,,,,,,,,,,,,*32
$GAGSA,A,1,,,,,,,,,,,,,,,,*23
