$GNGGA,,,,,,0,00,99.99,,,,,,*56
$GNGGA,,,,,,0,00,99.99,,,,,,*56
$GNGGA,,,,,,0,00,99.99,,,,,,*56
$GNGGA,,,,,,0,00,99.99,,,,,,*56
$GNGGA,,,,,,0,00,99.99,,,,,,*56
$GNGGA,,,,,,0,00,99.99,,,,,,*56
$GNGGA,,,,,,0,00,99.99,,,,,,*56
$GNGGA,,,,,,0,00,99.99,,,,,,*56
$GNGGA,,,,,,0,00,99.99,,,,,,*56
$GNGGA,,,,,,0,00,99.99,,,,,,*56
$GNGGA,,,,,,0,00,99.99,,,,,,*56
$GNGGA,,,,,,0,00,99.99,,,,,,*56
$GNGGA,,,,,,0,00,99.99,,,,,,*56
$GNGGA,,,,,,0,00,99.99,,,,,,*56
$GNGGA,,,,,,0,00,99.99,,,,,,*56
$GNGGA,,,,,,0,00,99.99,,,,,,*56
$GNGGA,,,,,,0,00,99.99,,,,,,*56
$GNGGA,,,,,,0,00,99.99,,,,,,*56
$GNGGA,,,,,,0,00,99.99,,,,,,*56
$GNGGA,,,,,,0,00,99.99,,,,,,*56
$GNGGA,,,,,,0,00,99.99,,,,,,*56
$GNGGA,,,,,,0,00,99.99,,,,,,*56
$GNGGA,,,,,,0,00,99.99,,,,,,*56
$GNGGA,,,,,,0,00,99.99,,,,,,*56
$GNGGA,,,,,,0,00,99.99,,,,,,*56
$GNGGA,,,,,,0,00,99.99,,,,,,*56
$GNGGA,,,,,,0,00,99.99,,,,,,*56
$GNGGA,,,,,,0,00,99.99,,,,,,*56
$GNGGA,,,,,,0,00,99.99,,,,,,*56
$GNGGA,,,,,,0,00,99.99,,,,,,*56
$GNGGA,,,,,,0,00,99.99,,,,,,*56
$GNGGA,,,,,,0,00,99.99,,,,,,*56
$GNGGA,,,,,,0,00,99.99,,,,,,*56
$GNGGA,,,,,,0,00,99.99,,,,,,*56
$GNGGA,,,,,,0,00,99.99,,,,,,*56
$GNGGA,045633.32,,,,,0,00,99.99,,,,,,*7E
$GNGGA,045634.00,,,,,0,00,99.99,,,,,,*78
$GNGGA,045635.00,,,,,0,00,99.99,,,,,,*79
$GNGGA,045636.00,,,,,0,00,99.99,,,,,,*7A
$GNGGA,045637.00,,,,,0,00,99.99,,,,,,*7B
$GNGGA,045638.00,,,,,0,00,99.99,,,,,,*74
$GNGGA,045639.00,,,,,0,00,99.99,,,,,,*75
$GNGGA,045640.00,,,,,0,00,99.99,,,,,,*7B
$GNGGA,045641.00,,,,,0,00,99.99,,,,,,*7A
$GNGGA,045642.00,,,,,0,00,99.99,,,,,,*79
$GNGGA,045643.00,,,,,0,00,99.99,,,,,,*78
$GNGGA,045644.00,,,,,0,00,99.99,,,,,,*7F
$GNGGA,045645.00,,,,,0,00,99.99,,,,,,*7E
$GNGGA,045646.00,,,,,0,00,99.99,,,,,,*7D
$GNGGA,045647.00,,,,,0,00,99.99,,,,,,*7C
$GNGGA,045648.00,,,,,0,00,99.99,,,,,,*73
$GNGGA,045649.00,,,,,0,00,99.99,,,,,,*72
$GNGGA,045650.00,,,,,0,00,99.99,,,,,,*7A
$GNGGA,045651.00,,,,,0,00,99.99,,,,,,*7B
$GNGGA,045652.00,,,,,0,00,99.99,,,,,,*78
$GNGGA,045653.00,,,,,0,00,99.99,,,,,,*79
$GNGGA,045654.00,,,,,0,00,99.99,,,,,,*7E
$GNGGA,045655.00,,,,,0,00,99.99,,,,,,*7F
$GNGGA,045656.00,,,,,0,00,99.99,,,,,,*7C
$GNGGA,045657.00,,,,,0,00,99.99,,,,,,*7D
$GNGGA,045658.00,,,,,0,00,99.99,,,,,,*72
$GNGGA,045659.00,,,,,0,00,99.99,,,,,,*73
$GNGGA,045700.00,,,,,0,00,99.99,,,,,,*7E
$GNGGA,045701.00,,,,,0,03,28.60,,,,,,*70
$GNGGA,045702.00,,,,,0,03,28.61,,,,,,*72
$GNGGA,045703.00,,,,,0,03,28.62,,,,,,*70
$GNGGA,045704.00,,,,,0,03,28.63,,,,,,*76
$GNGGA,045705.00,,,,,0,03,28.64,,,,,,*70
$GNGGA,045706.00,,,,,0,03,28.65,,,,,,*72
$GNGGA,045707.00,,,,,0,03,28.66,,,,,,*70
$GNGGA,045708.00,,,,,0,03,28.67,,,,,,*7E
$GNGGA,045709.00,,,,,0,03,28.68,,,,,,*70
$GNGGA,045710.00,,,,,0,03,28.70,,,,,,*71
$GNGGA,045711.00,,,,,0,03,28.71,,,,,,*71
$GNGGA,045712.00,,,,,0,03,28.72,,,,,,*71
$GNGGA,045713.00,,,,,0,03,28.73,,,,,,*71
$GNGGA,045714.00,,,,,0,03,28.74,,,,,,*71
$GNGGA,045715.00,,,,,0,03,28.75,,,,,,*71
$GNGGA,045716.00,,,,,0,00,99.99,,,,,,*79
$GNGGA,045717.00,,,,,0,00,99.99,,,,,,*78
$GNGGA,045718.00,,,,,0,00,99.99,,,,,,*77
$GNGGA,045719.00,,,,,0,00,99.99,,,,,,*76
$GNGGA,045720.00,,,,,0,00,99.99,,,,,,*7C
$GNGGA,045721.00,,,,,0,00,99.99,,,,,,*7D
$GNGGA,045722.00,,,,,0,00,99.99,,,,,,*7E
$GNGGA,045723.00,,,,,0,00,99.99,,,,,,*7F
$GNGGA,045724.00,,,,,0,00,99.99,,,,,,*78
$GNGGA,045725.00,,,,,0,00,99.99,,,,,,*79
$GNGGA,045726.00,,,,,0,00,99.99,,,,,,*7A
$GNGGA,045727.00,,,,,0,00,99.99,,,,,,*7B
$GNGGA,045728.00,,,,,0,00,99.99,,,,,,*74
$GNGGA,045729.00,,,,,0,00,99.99,,,,,,*75
$GNGGA,045730.00,,,,,0,00,99.99,,,,,,*7D
$GNGGA,045731.00,,,,,0,00,99.99,,,,,,*7C
$GNGGA,045732.00,,,,,0,00,99.99,,,,,,*7F
$GNGGA,045733.00,,,,,0,00,99.99,,,,,,*7E
$GNGGA,045734.00,,,,,0,00,99.99,,,,,,*79
$GNGGA,045735.00,,,,,0,00,99.99,,,,,,*78
$GNGGA,045736.00,,,,,0,00,99.99,,,,,,*7B
$GNGGA,045737.00,,,,,0,00,99.99,,,,,,*7A
$GNGGA,045738.00,,,,,0,00,99.99,,,,,,*75
$GNGGA,045739.00,,,,,0,00,99.99,,,,,,*74
$GNGGA,045740.00,,,,,0,00,99.99,,,,,,*7A
$GNGGA,045741.00,,,,,0,03,29.03,,,,,,*70
$GNGGA,045742.00,,,,,0,03,29.04,,,,,,*74
$GNGGA,045743.00,,,,,0,03,29.05,,,,,,*74
$GNGGA,045744.00,,,,,0,03,29.06,,,,,,*70
$GNGGA,045745.00,,,,,0,03,29.07,,,,,,*70
$GNGGA,045746.00,,,,,0,03,29.08,,,,,,*7C
$GNGGA,045747.00,,,,,0,03,29.09,,,,,,*7C
$GNGGA,045748.00,,,,,0,03,29.11,,,,,,*7A
$GNGGA,045749.00,,,,,0,03,29.12,,,,,,*78
$GNGGA,045750.00,,,,,0,03,29.13,,,,,,*71
$GNGGA,045751.00,,,,,0,03,29.14,,,,,,*77
$GNGGA,045752.00,,,,,0,03,29.15,,,,,,*75
$GNGGA,045753.00,,,,,0,03,29.16,,,,,,*77
$GNGGA,045754.00,,,,,0,03,29.17,,,,,,*71
$GNGGA,045755.00,,,,,0,03,29.18,,,,,,*7F
$GNGGA,045756.00,,,,,0,03,29.19,,,,,,*7D
$GNGGA,045757.00,,,,,0,03,29.20,,,,,,*76
$GNGGA,045758.00,,,,,0,03,29.21,,,,,,*78
$GNGGA,045759.00,,,,,0,03,29.23,,,,,,*7B
$GNGGA,045800.00,,,,,0,03,29.24,,,,,,*7F
$GNGGA,045801.00,,,,,0,03,29.25,,,,,,*7F
$GNGGA,045802.00,3944.52872,N,10511.63152,W,1,06,1.55,1792.2,M,-21.5,M,,*4F
$GNGGA,045803.00,3944.52893,N,10511.63065,W,1,05,1.62,1790.1,M,-21.5,M,,*42
$GNGGA,045804.00,3944.52889,N,10511.62993,W,1,05,1.62,1790.7,M,-21.5,M,,*49
$GNGGA,045805.00,3944.52936,N,10511.63034,W,1,04,1.89,1790.0,M,-21.5,M,,*4B
$GNGGA,045806.00,3944.53021,N,10511.63026,W,1,04,1.89,1789.6,M,-21.5,M,,*4B
$GNGGA,045807.00,3944.53089,N,10511.62967,W,1,04,1.89,1788.6,M,-21.5,M,,*44
$GNGGA,045808.00,3944.53128,N,10511.62931,W,1,05,1.77,1786.7,M,-21.5,M,,*4D
$GNGGA,045809.00,3944.53167,N,10511.62844,W,1,05,1.77,1785.0,M,-21.5,M,,*40
$GNGGA,045810.00,3944.53176,N,10511.62810,W,1,05,1.86,1784.5,M,-21.5,M,,*43
$GNGGA,045811.00,3944.53200,N,10511.62781,W,1,04,1.86,1783.4,M,-21.5,M,,*40
$GNGGA,045811.00,3944.53373,N,10511.62686,W,1,05,1.84,1783.9,M,-21.5,M,,*4D
$GNGGA,045812.00,,,,,0,04,20.39,,,,,,*7E
$GNGGA,045813.00,3944.53312,N,10511.62848,W,1,03,6.13,1788.0,M,-21.5,M,,*49
$GNGGA,045814.00,,,,,0,00,99.99,,,,,,*74
$GNGGA,045815.00,,,,,0,00,99.99,,,,,,*75
$GNGGA,045816.00,,,,,0,00,99.99,,,,,,*76
$GNGGA,045817.00,,,,,0,00,99.99,,,,,,*77
$GNGGA,045818.00,,,,,0,00,99.99,,,,,,*78
$GNGGA,045819.00,,,,,0,00,99.99,,,,,,*79
$GNGGA,045820.00,,,,,0,00,99.99,,,,,,*73
$GNGGA,045821.00,3944.53091,N,10511.63785,W,1,03,4.94,1786.4,M,-21.5,M,,*48
$GNGGA,045822.00,3944.53364,N,10511.64194,W,1,03,4.94,1786.0,M,-21.5,M,,*47
$GNGGA,045823.00,3944.53748,N,10511.64336,W,1,03,4.94,1785.8,M,-21.5,M,,*4D
$GNGGA,045824.00,3944.54025,N,10511.64604,W,1,03,4.93,1784.2,M,-21.5,M,,*49
$GNGGA,045825.00,3944.54450,N,10511.64772,W,1,03,4.93,1783.2,M,-21.5,M,,*49
$GNGGA,045826.00,3944.54462,N,10511.64909,W,1,03,4.93,1782.9,M,-21.5,M,,*43
$GNGGA,045827.00,3944.54644,N,10511.65019,W,1,03,4.93,1782.8,M,-21.5,M,,*4C
$GNGGA,045828.00,3944.55073,N,10511.65105,W,1,03,4.92,1782.6,M,-21.5,M,,*43
$GNGGA,045829.00,3944.53654,N,10511.64906,W,1,05,2.40,1786.7,M,-21.5,M,,*47
$GNGGA,045830.00,3944.53208,N,10511.64700,W,1,06,2.38,1786.3,M,-21.5,M,,*42
$GNGGA,045831.00,3944.53151,N,10511.64524,W,1,07,1.55,1786.0,M,-21.5,M,,*42
$GNGGA,045832.00,3944.53039,N,10511.64401,W,1,07,1.55,1785.9,M,-21.5,M,,*42
$GNGGA,045833.00,3944.53153,N,10511.64225,W,1,07,1.55,1785.9,M,-21.5,M,,*4E
$GNGGA,045834.00,3944.53137,N,10511.64096,W,1,07,1.55,1785.9,M,-21.5,M,,*41
$GNGGA,045835.00,3944.53026,N,10511.64015,W,1,07,1.55,1785.8,M,-21.5,M,,*4B
$GNGGA,045836.00,3944.53006,N,10511.63948,W,1,07,1.55,1785.7,M,-21.5,M,,*43
$GNGGA,045837.00,3944.53100,N,10511.63934,W,1,07,1.55,1784.6,M,-21.5,M,,*4E
$GNGGA,045838.00,3944.53101,N,10511.63889,W,1,07,1.55,1783.6,M,-21.5,M,,*40
$GNGGA,045839.00,3944.53075,N,10511.63916,W,1,07,1.55,1782.7,M,-21.5,M,,*44
