$GNRMC,,V,,,,,,,,,,N*4D
$GNRMC,,V,,,,,,,,,,N*4D
$GNRMC,,V,,,,,,,,,,N*4D
$GNRMC,,V,,,,,,,,,,N*4D
$GNRMC,,V,,,,,,,,,,N*4D
$GNRMC,,V,,,,,,,,,,N*4D
$GNRMC,,V,,,,,,,,,,N*4D
$GNRMC,,V,,,,,,,,,,N*4D
$GNRMC,,V,,,,,,,,,,N*4D
$GNRMC,,V,,,,,,,,,,N*4D
$GNRMC,,V,,,,,,,,,,N*4D
$GNRMC,,V,,,,,,,,,,N*4D
$GNRMC,,V,,,,,,,,,,N*4D
$GNRMC,,V,,,,,,,,,,N*4D
$GNRMC,,V,,,,,,,,,,N*4D
$GNRMC,,V,,,,,,,,,,N*4D
$GNRMC,,V,,,,,,,,,,N*4D
$GNRMC,,V,,,,,,,,,,N*4D
$GNRMC,,V,,,,,,,,,,N*4D
$GNRMC,,V,,,,,,,,,,N*4D
$GNRMC,,V,,,,,,,,,,N*4D
$GNRMC,,V,,,,,,,,,,N*4D
$GNRMC,,V,,,,,,,,,,N*4D
$GNRMC,,V,,,,,,,,,,N*4D
$GNRMC,,V,,,,,,,,,,N*4D
$GNRMC,,V,,,,,,,,,,N*4D
$GNRMC,,V,,,,,,,,,,N*4D
$GNRMC,,V,,,,,,,,,,N*4D
$GNRMC,,V,,,,,,,,,,N*4D
$GNRMC,,V,,,,,,,,,,N*4D
$GNRMC,,V,,,,,,,,,,N*4D
$GNRMC,,V,,,,,,,,,,N*4D
$GNRMC,,V,,,,,,,,,,N*4D
$GNRMC,,V,,,,,,,,,,N*4D
$GNRMC,,V,,,,,,,,,,N*4D
$GNRMC,045633.32,V,,,,,,,,,,N*65
$GNRMC,045634.00,V,,,,,,,,,,N*63
$GNRMC,045635.00,V,,,,,,,,,,N*62
$GNRMC,045636.00,V,,,,,,,,,,N*61
$GNRMC,045637.00,V,,,,,,,,,,N*60
$GNRMC,045638.00,V,,,,,,,,,,N*6F
$GNRMC,045639.00,V,,,,,,,,,,N*6E
$GNRMC,045640.00,V,,,,,,,,,,N*60
$GNRMC,045641.00,V,,,,,,,,,,N*61
$GNRMC,045642.00,V,,,,,,,,,,N*62
$GNRMC,045643.00,V,,,,,,,,,,N*63
$GNRMC,045644.00,V,,,,,,,,,,N*64
$GNRMC,045645.00,V,,,,,,,221220,,,N*64
$GNRMC,045646.00,V,,,,,,,221220,,,N*67
$GNRMC,045647.00,V,,,,,,,221220,,,N*66
$GNRMC,045648.00,V,,,,,,,221220,,,N*69
$GNRMC,045649.00,V,,,,,,,221220,,,N*68
$GNRMC,045650.00,V,,,,,,,221220,,,N*60
$GNRMC,045651.00,V,,,,,,,221220,,,N*61
$GNRMC,045652.00,V,,,,,,,221220,,,N*62
$GNRMC,045653.00,V,,,,,,,221220,,,N*63
$GNRMC,045654.00,V,,,,,,,221220,,,N*64
$GNRMC,045655.00,V,,,,,,,221220,,,N*65
$GNRMC,045656.00,V,,,,,,,221220,,,N*66
$GNRMC,045657.00,V,,,,,,,221220,,,N*67
$GNRMC,045658.00,V,,,,,,,221220,,,N*68
$GNRMC,045659.00,V,,,,,,,221220,,,N*69
$GNRMC,045700.00,V,,,,,,,221220,,,N*64
$GNRMC,045701.00,V,,,,,,,221220,,,N*65
$GNRMC,045702.00,V,,,,,,,221220,,,N*66
$GNRMC,045703.00,V,,,,,,,221220,,,N*67
$GNRMC,045704.00,V,,,,,,,221220,,,N*60
$GNRMC,045705.00,V,,,,,,,221220,,,N*61
$GNRMC,045706.00,V,,,,,,,221220,,,N*62
$GNRMC,045707.00,V,,,,,,,221220,,,N*63
$GNRMC,045708.00,V,,,,,,,221220,,,N*6C
$GNRMC,045709.00,V,,,,,,,221220,,,N*6D
$GNRMC,045710.00,V,,,,,,,221220,,,N*65
$GNRMC,045711.00,V,,,,,,,221220,,,N*64
$GNRMC,045712.00,V,,,,,,,221220,,,N*67
$GNRMC,045713.00,V,,,,,,,221220,,,N*66
$GNRMC,045714.00,V,,,,,,,221220,,,N*61
$GNRMC,045715.00,V,,,,,,,221220,,,N*60
$GNRMC,045716.00,V,,,,,,,221220,,,N*63
$GNRMC,045717.00,V,,,,,,,221220,,,N*62
$GNRMC,045718.00,V,,,,,,,221220,,,N*6D
$GNRMC,045719.00,V,,,,,,,221220,,,N*6C
$GNRMC,045720.00,V,,,,,,,221220,,,N*66
$GNRMC,045721.00,V,,,,,,,221220,,,N*67
$GNRMC,045722.00,V,,,,,,,221220,,,N*64
$GNRMC,045723.00,V,,,,,,,221220,,,N*65
$GNRMC,045724.00,V,,,,,,,221220,,,N*62
$GNRMC,045725.00,V,,,,,,,221220,,,N*63
$GNRMC,045726.00,V,,,,,,,221220,,,N*60
$GNRMC,045727.00,V,,,,,,,221220,,,N*61
$GNRMC,045728.00,V,,,,,,,221220,,,N*6E
$GNRMC,045729.00,V,,,,,,,221220,,,N*6F
$GNRMC,045730.00,V,,,,,,,221220,,,N*67
$GNRMC,045731.00,V,,,,,,,221220,,,N*66
$GNRMC,045732.00,V,,,,,,,221220,,,N*65
$GNRMC,045733.00,V,,,,,,,221220,,,N*64
$GNRMC,045734.00,V,,,,,,,221220,,,N*63
$GNRMC,045735.00,V,,,,,,,221220,,,N*62
$GNRMC,045736.00,V,,,,,,,221220,,,N*61
$GNRMC,045737.00,V,,,,,,,221220,,,N*60
$GNRMC,045738.00,V,,,,,,,221220,,,N*6F
$GNRMC,045739.00,V,,,,,,,221220,,,N*6E
$GNRMC,045740.00,V,,,,,,,221220,,,N*60
$GNRMC,045741.00,V,,,,,,,221220,,,N*61
$GNRMC,045742.00,V,,,,,,,221220,,,N*62
$GNRMC,045743.00,V,,,,,,,221220,,,N*63
$GNRMC,045744.00,V,,,,,,,221220,,,N*64
$GNRMC,045745.00,V,,,,,,,221220,,,N*65
$GNRMC,045746.00,V,,,,,,,221220,,,N*66
$GNRMC,045747.00,V,,,,,,,221220,,,N*67
$GNRMC,045748.00,V,,,,,,,221220,,,N*68
$GNRMC,045749.00,V,,,,,,,221220,,,N*69
$GNRMC,045750.00,V,,,,,,,221220,,,N*61
$GNRMC,045751.00,V,,,,,,,221220,,,N*60
$GNRMC,045752.00,V,,,,,,,221220,,,N*63
$GNRMC,045753.00,V,,,,,,,221220,,,N*62
$GNRMC,045754.00,V,,,,,,,221220,,,N*65
$GNRMC,045755.00,V,,,,,,,221220,,,N*64
$GNRMC,045756.00,V,,,,,,,221220,,,N*67
$GNRMC,045757.00,V,,,,,,,221220,,,N*66
$GNRMC,045758.00,V,,,,,,,221220,,,N*69
$GNRMC,045759.00,V,,,,,,,221220,,,N*68
$GNRMC,045800.00,V,,,,,,,221220,,,N*6B
$GNRMC,045801.00,V,,,,,,,221220,,,N*6A
$GNRMC,045802.00,A,3944.52872,N,10511.63152,W,0.125,,221220,,,A*77
$GNRMC,045803.00,A,3944.52893,N,10511.63065,W,0.841,,221220,,,A*77
$GNRMC,045804.00,A,3944.52889,N,10511.62993,W,1.521,342.48,221220,,,A*67
$GNRMC,045805.00,A,3944.52936,N,10511.63034,W,4.671,344.55,221220,,,A*6F
$GNRMC,045806.00,A,3944.53021,N,10511.63026,W,2.738,,221220,,,A*76
$GNRMC,045807.00,A,3944.53089,N,10511.62967,W,2.814,,221220,,,A*79
$GNRMC,045808.00,A,3944.53128,N,10511.62931,W,2.422,,221220,,,A*76
$GNRMC,045809.00,A,3944.53167,N,10511.62844,W,2.676,353.44,221220,,,A*67
$GNRMC,045810.00,A,3944.53176,N,10511.62810,W,2.010,,221220,,,A*73
$GNRMC,045811.00,A,3944.53200,N,10511.62781,W,2.141,,221220,,,A*72
$GNRMC,045811.00,A,3944.53373,N,10511.62686,W,6.714,34.34,221220,,,A*5D
$GNRMC,045812.00,V,,,,,,,221220,,,N*68
$GNRMC,045813.00,A,3944.53312,N,10511.62848,W,1.376,,221220,,,A*7D
$GNRMC,045814.00,V,,,,,,,221220,,,N*6E
$GNRMC,045815.00,V,,,,,,,221220,,,N*6F
$GNRMC,045816.00,V,,,,,,,221220,,,N*6C
$GNRMC,045817.00,V,,,,,,,221220,,,N*6D
$GNRMC,045818.00,V,,,,,,,221220,,,N*62
$GNRMC,045819.00,V,,,,,,,221220,,,N*63
$GNRMC,045820.00,V,,,,,,,221220,,,N*69
$GNRMC,045821.00,A,3944.53091,N,10511.63785,W,5.143,,221220,,,A*7B
$GNRMC,045822.00,A,3944.53364,N,10511.64194,W,6.984,,221220,,,A*70
$GNRMC,045823.00,A,3944.53748,N,10511.64336,W,7.346,,221220,,,A*74
$GNRMC,045824.00,A,3944.54025,N,10511.64604,W,8.318,,221220,,,A*78
$GNRMC,045825.00,A,3944.54450,N,10511.64772,W,9.234,,221220,,,A*71
$GNRMC,045826.00,A,3944.54462,N,10511.64909,W,7.617,,221220,,,A*7A
$GNRMC,045827.00,A,3944.54644,N,10511.65019,W,7.299,,221220,,,A*76
$GNRMC,045828.00,A,3944.55073,N,10511.65105,W,8.864,15.24,221220,,,A*5D
$GNRMC,045829.00,A,3944.53654,N,10511.64906,W,1.931,,221220,,,A*77
$GNRMC,045830.00,A,3944.53208,N,10511.64700,W,0.448,,221220,,,A*78
$GNRMC,045831.00,A,3944.53151,N,10511.64524,W,0.813,,221220,,,A*70
$GNRMC,045832.00,A,3944.53039,N,10511.64401,W,0.875,,221220,,,A*7A
$GNRMC,045833.00,A,3944.53153,N,10511.64225,W,0.789,,221220,,,A*7A
$GNRMC,045834.00,A,3944.53137,N,10511.64096,W,0.889,,221220,,,A*7A
$GNRMC,045835.00,A,3944.53026,N,10511.64015,W,1.455,,221220,,,A*7D
$GNRMC,045836.00,A,3944.53006,N,10511.63948,W,1.073,,221220,,,A*7A
$GNRMC,045837.00,A,3944.53100,N,10511.63934,W,0.492,,221220,,,A*7D
$GNRMC,045838.00,A,3944.53101,N,10511.63889,W,0.354,,221220,,,A*79
$GNRMC,045839.00,A,3944.53075,N,10511.63916,W,0.542,,221220,,,A*7C
