$GPRMC,,V,,,,,,,,,,N,V*29
$GPGSV,4,1,13,02,21,067,18,08,54,293,23,18,18,063,13,21,24,248,19,1*6E
$GPGSV,4,2,13,23,44,064,20,27,86,098,19,07,13,291,,10,55,122,,1*6C
$GPGSV,4,3,13,13,02,005,,15,08,030,,16,42,185,,26,11,171,,1*65
$GPGSV,4,4,13,30,09,323,,1*5E
$GPGGA,144718.01,,,,,0,,,,,,,,*46
$GAGGA,144718.01,,,,,0,,,,,,,,*57
$GPVTG,,T,,M,,N,,K,N*2C
$GAVTG,,T,,M,,N,,K,N*3D
$GARMC,,V,,,,,,,,,,N,V*38
$GPGSA,A,1,,,,,,,,,,,,,,,,*32
$GAGSA,A,1,,,,,,,,,,,,,,,,*23
$GPRMC,,V,,,,,,,,,,N,V*29
$GPGSV,4,1,13,02,21,067,20,08,54,293,23,18,18,063,13,21,24,248,19,1*65
$GPGSV,4,2,13,23,44,064,20,27,86,098,17,07,13,291,,10,55,122,,1*62
$GPGSV,4,3,13,13,02,005,,15,08,030,,16,42,185,,26,11,171,,1*65
$GPGSV,4,4,13,30,09,323,,1*5E
$GPGGA,144719.01,,,,,0,,,,,,,,*47
$GAGGA,144719.01,,,,,0,,,,,,,,*56
$GPVTG,,T,,M,,N,,K,N*2C
$GAVTG,,T,,M,,N,,K,N*3D
$GARMC,,V,,,,,,,,,,N,V*38
$GPGSA,A,1,,,,,,,,,,,,,,,,*32
$GAGSA,A,1,,,,,,,,,,,,,,,,*23
$GPRMC,,V,,,,,,,,,,N,V*29
$GPGSV,4,1,13,02,21,067,20,08,54,293,22,18,18,063,13,21,24,248,19,1*64
$GPGSV,4,2,13,23,44,064,20,27,86,098,17,07,13,291,,10,55,122,,1*62
$GPGSV,4,3,13,13,02,005,,15,08,030,,16,42,185,,26,11,171,,1*65
$GPGSV,4,4,13,30,09,323,,1*5E
$GPGGA,144720.01,,,,,0,,,,,,,,*4D
$GAGGA,144720.01,,,,,0,,,,,,,,*5C
$GPVTG,,T,,M,,N,,K,N*2C
$GAVTG,,T,,M,,N,,K,N*3D
$GARMC,,V,,,,,,,,,,N,V*38
$GPGSA,A,1,,,,,,,,,,,,,,,,*32
$GAGSA,A,1,,,,,,,,,,,,,,,,*23
$GPRMC,,V,,,,,,,,,,N,V*29
$GPGSV,4,1,13,02,21,067,20,08,54,293,22,18,18,063,13,21,24,248,19,1*64
$GPGSV,4,2,13,23,44,064,20,27,86,098,20,07,13,291,,10,55,122,,1*66
$GPGSV,4,3,13,13,02,005,,15,08,030,,16,42,185,,26,11,171,,1*65
$GPGSV,4,4,13,30,09,323,,1*5E
$GPGGA,144721.01,,,,,0,,,,,,,,*4C
$GAGGA,144721.01,,,,,0,,,,,,,,*5D
$GPVTG,,T,,M,,N,,K,N*2C
$GAVTG,,T,,M,,N,,K,N*3D
$GARMC,,V,,,,,,,,,,N,V*38
$GPGSA,A,1,,,,,,,,,,,,,,,,*32
$GAGSA,A,1,,,,,,,,,,,,,,,,*23
$GPRMC,,V,,,,,,,,,,N,V*29
$GPGSV,4,1,13,02,21,067,18,08,54,293,21,18,18,063,13,21,24,248,19,1*6C
$GPGSV,4,2,13,23,44,064,20,27,86,098,20,07,13,291,,10,55,122,,1*66
$GPGSV,4,3,13,13,02,005,,15,08,030,,16,42,185,,26,11,171,,1*65
$GPGSV,4,4,13,30,09,323,,1*5E
$GPGGA,144722.01,,,,,0,,,,,,,,*4F
$GAGGA,144722.01,,,,,0,,,,,,,,*5E
$GPVTG,,T,,M,,N,,K,N*2C
$GAVTG,,T,,M,,N,,K,N*3D
$GARMC,,V,,,,,,,,,,N,V*38
$GPGSA,A,1,,,,,,,,,,,,,,,,*32
$GAGSA,A,1,,,,,,,,,,,,,,,,*23
$GPRMC,,V,,,,,,,,,,N,V*29
$GPGSV,4,1,13,02,21,067,18,08,54,293,23,18,18,063,13,21,24,248,19,1*6E
$GPGSV,4,2,13,23,44,064,22,27,86,098,20,07,13,291,,10,55,122,,1*64
$GPGSV,4,3,13,13,02,005,,15,08,030,,16,42,185,,26,11,171,,1*65
$GPGSV,4,4,13,30,09,323,,1*5E
$GPGGA,144723.01,,,,,0,,,,,,,,*4E
$GAGGA,144723.01,,,,,0,,,,,,,,*5F
$GPVTG,,T,,M,,N,,K,N*2C
$GAVTG,,T,,M,,N,,K,N*3D
$GARMC,,V,,,,,,,,,,N,V*38
$GPGSA,A,1,,,,,,,,,,,,,,,,*32
$GAGSA,A,1,,,,,,,,,,,,,,,,*23
$GPRMC,,V,,,,,,,,,,N,V*29
$GPGSV,4,1,13,02,21,067,21,08,54,293,22,18,18,063,13,21,24,248,19,1*65
$GPGSV,4,2,13,23,44,064,22,27,86,098,19,07,13,291,,10,55,122,,1*6E
$GPGSV,4,3,13,13,02,005,,15,08,030,,16,42,185,,26,11,171,,1*65
$GPGSV,4,4,13,30,09,323,,1*5E
$GPGGA,144724.01,,,,,0,,,,,,,,*49
$GAGGA,144724.01,,,,,0,,,,,,,,*58
$GPVTG,,T,,M,,N,,K,N*2C
$GAVTG,,T,,M,,N,,K,N*3D
$GARMC,,V,,,,,,,,,,N,V*38
$GPGSA,A,1,,,,,,,,,,,,,,,,*32
$GAGSA,A,1,,,,,,,,,,,,,,,,*23
$GPRMC,,V,,,,,,,,,,N,V*29
$GPGSV,4,1,13,02,21,067,21,08,54,293,22,18,18,063,13,21,24,248,19,1*65
$GPGSV,4,2,13,23,44,064,21,27,86,098,19,07,13,291,,10,55,122,,1*6D
$GPGSV,4,3,13,13,02,005,,15,08,030,,16,42,185,,26,11,171,,1*65
$GPGSV,4,4,13,30,09,323,,1*5E
$GPGGA,144725.01,,,,,0,,,,,,,,*48
$GAGGA,144725.01,,,,,0,,,,,,,,*59
$GPVTG,,T,,M,,N,,K,N*2C
$GAVTG,,T,,M,,N,,K,N*3D
$GARMC,,V,,,,,,,,,,N,V*38
$GPGSA,A,1,,,,,,,,,,,,,,,,*32
$GAGSA,A,1,,,,,,,,,,,,,,,,*23
$GPRMC,,V,,,,,,,,,,N,V*29
$GPGSV,4,1,13,02,21,067,21,08,54,293,23,18,18,063,13,21,24,248,19,1*64
$GPGSV,4,2,13,23,44,064,21,27,86,098,19,07,13,291,,10,55,122,,1*6D
$GPGSV,4,3,13,13,02,005,,15,08,030,,16,42,185,,26,11,171,,1*65
$GPGSV,4,4,13,30,09,323,,1*5E
$GPGGA,144726.01,,,,,0,,,,,,,,*4B
$GAGGA,144726.01,,,,,0,,,,,,,,*5A
$GPVTG,,T,,M,,N,,K,N*2C
$GAVTG,,T,,M,,N,,K,N*3D
$GARMC,,V,,,,,,,,,,N,V*38
$GPGSA,A,1,,,,,,,,,,,,,,,,*32
$GAGSA,A,1,,,,,,,,,,,,,,,,*23
$GPRMC,,V,,,,,,,,,,N,V*29
$GPGSV,4,1,13,02,21,067,23,08,54,293,24,18,18,063,13,21,24,248,19,1*61
$GPGSV,4,2,13,23,44,064,21,27,86,098,19,07,13,291,,10,55,122,,1*6D
$GPGSV,4,3,13,13,02,005,,15,08,030,,16,42,185,,26,11,171,,1*65
$GPGSV,4,4,13,30,09,323,,1*5E
$GPGGA,144727.01,,,,,0,,,,,,,,*4A
$GAGGA,144727.01,,,,,0,,,,,,,,*5B
$GPVTG,,T,,M,,N,,K,N*2C
$GAVTG,,T,,M,,N,,K,N*3D
$GARMC,,V,,,,,,,,,,N,V*38
$GPGSA,A,1,,,,,,,,,,,,,,,,*32
$GAGSA,A,1,,,,,,,,,,,,,,,,*23
$GPRMC,,V,,,,,,,,,,N,V*29
$GPGSV,4,1,13,02,21,067,22,08,54,293,22,18,18,063,15,21,24,248,16,1*6F
$GPGSV,4,2,13,23,44,064,22,27,86,099,19,07,13,291,,10,55,122,,1*6F
$GPGSV,4,3,13,13,02,005,,15,08,030,,16,42,185,,26,10,171,,1*64
$GPGSV,4,4,13,30,09,322,,1*5F
$GPGGA,144728.01,,,,,0,,,,,,,,*45
$GAGGA,144728.01,,,,,0,,,,,,,,*54
$GPVTG,,T,,M,,N,,K,N*2C
$GAVTG,,T,,M,,N,,K,N*3D
$GARMC,,V,,,,,,,,,,N,V*38
$GPGSA,A,1,,,,,,,,,,,,,,,,*32
$GAGSA,A,1,,,,,,,,,,,,,,,,*23
$GPRMC,,V,,,,,,,,,,N,V*29
$GPGSV,4,1,13,02,21,067,22,08,54,293,23,18,18,063,15,21,24,248,16,1*6E
$GPGSV,4,2,13,23,44,064,22,27,85,099,19,07,13,291,,10,55,122,,1*6C
$GPGSV,4,3,13,13,02,005,,15,08,030,,16,42,185,,26,10,171,,1*64
$GPGSV,4,4,13,30,09,322,,1*5F
$GPGGA,144729.01,,,,,0,,,,,,,,*44
$GAGGA,144729.01,,,,,0,,,,,,,,*55
$GPVTG,,T,,M,,N,,K,N*2C
$GAVTG,,T,,M,,N,,K,N*3D
$GARMC,,V,,,,,,,,,,N,V*38
$GPGSA,A,1,,,,,,,,,,,,,,,,*32
$GAGSA,A,1,,,,,,,,,,,,,,,,*23
$GPRMC,,V,,,,,,,,,,N,V*29
$GPGSV,4,1,13,02,21,067,21,08,54,293,22,18,18,063,15,21,24,248,16,1*6C
$GPGSV,4,2,13,23,44,064,22,27,85,099,19,07,13,291,,10,55,122,,1*6C
$GPGSV,4,3,13,13,02,005,,15,08,030,,16,42,185,,26,10,171,,1*64
$GPGSV,4,4,13,30,09,322,,1*5F
$GPGGA,144730.01,,,,,0,,,,,,,,*4C
$GAGGA,144730.01,,,,,0,,,,,,,,*5D
$GPVTG,,T,,M,,N,,K,N*2C
$GAVTG,,T,,M,,N,,K,N*3D
$GARMC,,V,,,,,,,,,,N,V*38
$GPGSA,A,1,,,,,,,,,,,,,,,,*32
$GAGSA,A,1,,,,,,,,,,,,,,,,*23
$GPRMC,,V,,,,,,,,,,N,V*29
$GPGSV,4,1,13,02,21,067,21,08,54,293,23,18,18,063,15,21,24,248,16,1*6D
$GPGSV,4,2,13,23,44,064,23,27,85,099,19,07,13,291,,10,55,122,,1*6D
$GPGSV,4,3,13,13,02,005,,15,08,030,,16,42,185,,26,10,171,,1*64
$GPGSV,4,4,13,30,09,322,,1*5F
$GPGGA,144731.01,,,,,0,,,,,,,,*4D
$GAGGA,144731.01,,,,,0,,,,,,,,*5C
$GPVTG,,T,,M,,N,,K,N*2C
$GAVTG,,T,,M,,N,,K,N*3D
$GARMC,,V,,,,,,,,,,N,V*38
$GPGSA,A,1,,,,,,,,,,,,,,,,*32
$GAGSA,A,1,,,,,,,,,,,,,,,,*23
$GPRMC,,V,,,,,,,,,,N,V*29
$GPGSV,4,1,13,02,21,067,21,08,54,293,24,18,18,063,15,21,24,248,16,1*6A
$GPGSV,4,2,13,23,44,064,23,27,85,099,19,07,13,291,,10,55,122,,1*6D
$GPGSV,4,3,13,13,02,005,,15,08,030,,16,42,185,,26,10,171,,1*64
$GPGSV,4,4,13,30,09,322,,1*5F
$GPGGA,144732.01,,,,,0,,,,,,,,*4E
$GAGGA,144732.01,,,,,0,,,,,,,,*5F
$GPVTG,,T,,M,,N,,K,N*2C
$GAVTG,,T,,M,,N,,K,N*3D
$GARMC,,V,,,,,,,,,,N,V*38
$GPGSA,A,1,,,,,,,,,,,,,,,,*32
$GAGSA,A,1,,,,,,,,,,,,,,,,*23
$GPRMC,,V,,,,,,,,,,N,V*29
$GPGSV,4,1,13,02,21,067,22,08,54,293,23,18,18,063,15,21,24,248,16,1*6E
$GPGSV,4,2,13,23,44,064,21,27,85,099,19,07,13,291,,10,55,122,,1*6F
$GPGSV,4,3,13,13,02,005,,15,08,030,,16,42,185,,26,10,171,,1*64
$GPGSV,4,4,13,30,09,322,,1*5F
$GPGGA,144733.01,,,,,0,,,,,,,,*4F
$GAGGA,144733.01,,,,,0,,,,,,,,*5E
$GPVTG,,T,,M,,N,,K,N*2C
$GAVTG,,T,,M,,N,,K,N*3D
$GARMC,,V,,,,,,,,,,N,V*38
$GPGSA,A,1,,,,,,,,,,,,,,,,*32
$GAGSA,A,1,,,,,,,,,,,,,,,,*23
$GPRMC,,V,,,,,,,,,,N,V*29
$GPGSV,4,1,13,02,21,067,22,08,54,293,24,18,18,063,15,21,24,248,17,1*68
$GPGSV,4,2,13,23,44,064,21,27,85,099,19,07,13,291,,10,55,122,,1*6F
$GPGSV,4,3,13,13,02,005,,15,08,030,,16,42,185,,26,10,171,,1*64
$GPGSV,4,4,13,30,09,322,,1*5F
$GPGGA,144734.01,,,,,0,,,,,,,,*48
$GAGGA,144734.01,,,,,0,,,,,,,,*59
$GPVTG,,T,,M,,N,,K,N*2C
$GAVTG,,T,,M,,N,,K,N*3D
$GARMC,,V,,,,,,,,,,N,V*38
$GPGSA,A,1,,,,,,,,,,,,,,,,*32
$GAGSA,A,1,,,,,,,,,,,,,,,,*23
$GPRMC,,V,,,,,,,,,,N,V*29
$GPGSV,4,1,13,02,21,067,20,08,54,293,23,18,18,063,15,21,24,248,17,1*6D
$GPGSV,4,2,13,23,44,064,21,27,85,099,18,07,13,291,,10,55,122,,1*6E
$GPGSV,4,3,13,13,02,005,,15,08,030,,16,42,185,,26,10,171,,1*64
$GPGSV,4,4,13,30,09,322,,1*5F
$GPGGA,144735.01,,,,,0,,,,,,,,*49
$GAGGA,144735.01,,,,,0,,,,,,,,*58
$GPVTG,,T,,M,,N,,K,N*2C
$GAVTG,,T,,M,,N,,K,N*3D
$GARMC,,V,,,,,,,,,,N,V*38
$GPGSA,A,1,,,,,,,,,,,,,,,,*32
$GAGSA,A,1,,,,,,,,,,,,,,,,*23
$GPRMC,,V,,,,,,,,,,N,V*29
$GPGSV,4,1,13,02,21,067,20,08,54,293,22,18,18,063,15,21,24,248,17,1*6C
$GPGSV,4,2,13,23,44,064,22,27,85,099,18,07,13,291,,10,55,122,,1*6D
$GPGSV,4,3,13,13,02,005,,15,08,030,,16,42,185,,26,10,171,,1*64
$GPGSV,4,4,13,30,09,322,,1*5F
$GPGGA,144736.01,,,,,0,,,,,,,,*4A
$GAGGA,144736.01,,,,,0,,,,,,,,*5B
$GPVTG,,T,,M,,N,,K,N*2C
$GAVTG,,T,,M,,N,,K,N*3D
$GARMC,,V,,,,,,,,,,N,V*38
$GPGSA,A,1,,,,,,,,,,,,,,,,*32
$GAGSA,A,1,,,,,,,,,,,,,,,,*23
$GPRMC,,V,,,,,,,,,,N,V*29
$GPGSV,4,1,13,02,21,067,20,08,54,293,23,18,18,063,15,21,24,248,18,1*62
$GPGSV,4,2,13,23,44,064,22,27,85,099,18,07,13,291,,10,55,122,,1*6D
$GPGSV,4,3,13,13,02,005,,15,08,030,,16,42,185,,26,10,171,,1*64
$GPGSV,4,4,13,30,09,322,,1*5F
$GPGGA,144737.01,,,,,0,,,,,,,,*4B
$GAGGA,144737.01,,,,,0,,,,,,,,*5A
$GPVTG,,T,,M,,N,,K,N*2C
$GAVTG,,T,,M,,N,,K,N*3D
$GARMC,,V,,,,,,,,,,N,V*38
$GPGSA,A,1,,,,,,,,,,,,,,,,*32
$GAGSA,A,1,,,,,,,,,,,,,,,,*23
$GPRMC,,V,,,,,,,,,,N,V*29
$GPGSV,4,1,13,02,21,067,20,08,54,293,23,18,18,063,15,21,24,248,18,1*62
$GPGSV,4,2,13,23,44,064,21,27,85,099,19,07,13,291,,10,55,122,,1*6F
$GPGSV,4,3,13,13,02,005,,15,08,030,,16,42,185,,26,10,171,,1*64
$GPGSV,4,4,13,30,09,322,,1*5F
$GPGGA,144738.01,,,,,0,,,,,,,,*44
$GAGGA,144738.01,,,,,0,,,,,,,,*55
$GPVTG,,T,,M,,N,,K,N*2C
$GAVTG,,T,,M,,N,,K,N*3D
$GARMC,,V,,,,,,,,,,N,V*38
$GPGSA,A,1,,,,,,,,,,,,,,,,*32
$GAGSA,A,1,,,,,,,,,,,,,,,,*23
$GPRMC,,V,,,,,,,,,,N,V*29
$GPGSV,4,1,13,02,21,067,20,08,54,293,20,18,18,063,15,21,24,248,19,1*60
$GPGSV,4,2,13,23,44,064,22,27,85,099,19,07,13,291,,10,55,122,,1*6C
$GPGSV,4,3,13,13,02,005,,15,08,030,,16,42,185,,26,10,171,,1*64
$GPGSV,4,4,13,30,09,322,,1*5F
$GPGGA,144739.01,,,,,0,,,,,,,,*45
$GAGGA,144739.01,,,,,0,,,,,,,,*54
$GPVTG,,T,,M,,N,,K,N*2C
$GAVTG,,T,,M,,N,,K,N*3D
$GARMC,,V,,,,,,,,,,N,V*38
$GPGSA,A,1,,,,,,,,,,,,,,,,*32
$GAGSA,A,1,,,,,,,,,,,,,,,,*23
$GPRMC,,V,,,,,,,,,,N,V*29
$GPGSV,4,1,13,02,21,067,20,08,54,293,22,18,18,063,13,21,24,248,19,1*64
$GPGSV,4,2,13,23,44,064,22,27,85,099,19,07,13,291,,10,55,122,,1*6C
$GPGSV,4,3,13,13,02,005,,15,08,030,,16,42,185,,26,10,171,,1*64
$GPGSV,4,4,13,30,09,322,,1*5F
$GPGGA,144740.01,,,,,0,,,,,,,,*4B
$GAGGA,144740.01,,,,,0,,,,,,,,*5A
$GPVTG,,T,,M,,N,,K,N*2C
$GAVTG,,T,,M,,N,,K,N*3D
$GARMC,,V,,,,,,,,,,N,V*38
$GPGSA,A,1,,,,,,,,,,,,,,,,*32
$GAGSA,A,1,,,,,,,,,,,,,,,,*23
$GPRMC,,V,,,,,,,,,,N,V*29
$GPGSV,4,1,13,02,21,067,20,08,55,293,22,18,18,063,13,21,24,248,19,1*65
$GPGSV,4,2,13,23,44,064,21,27,85,099,19,07,13,291,,10,55,122,,1*6F
$GPGSV,4,3,13,13,02,005,,15,08,030,,16,42,185,,26,10,171,,1*64
$GPGSV,4,4,13,30,09,322,,1*5F
$GPGGA,144741.01,,,,,0,,,,,,,,*4A
$GAGGA,144741.01,,,,,0,,,,,,,,*5B
$GPVTG,,T,,M,,N,,K,N*2C
$GAVTG,,T,,M,,N,,K,N*3D
$GARMC,,V,,,,,,,,,,N,V*38
$GPGSA,A,1,,,,,,,,,,,,,,,,*32
$GAGSA,A,1,,,,,,,,,,,,,,,,*23
$GPRMC,,V,,,,,,,,,,N,V*29
$GPGSV,4,1,13,02,21,067,20,08,55,293,21,18,18,063,13,21,24,248,19,1*66
$GPGSV,4,2,13,23,44,064,23,27,85,099,18,07,13,291,,10,55,122,,1*6C
$GPGSV,4,3,13,13,02,005,,15,08,030,,16,42,185,,26,10,171,,1*64
$GPGSV,4,4,13,30,09,322,,1*5F
$GPGGA,144742.01,,,,,0,,,,,,,,*49
$GAGGA,144742.01,,,,,0,,,,,,,,*58
$GPVTG,,T,,M,,N,,K,N*2C
$GAVTG,,T,,M,,N,,K,N*3D
$GARMC,,V,,,,,,,,,,N,V*38
$GPGSA,A,1,,,,,,,,,,,,,,,,*32
$GAGSA,A,1,,,,,,,,,,,,,,,,*23
$GPRMC,,V,,,,,,,,,,N,V*29
$GPGSV,4,1,13,02,21,067,20,08,55,293,21,18,18,063,13,21,24,248,19,1*66
$GPGSV,4,2,13,23,44,064,22,27,85,099,18,07,13,291,,10,55,122,,1*6D
$GPGSV,4,3,13,13,02,005,,15,08,030,,16,42,185,,26,10,171,,1*64
$GPGSV,4,4,13,30,09,322,,1*5F
$GPGGA,144743.01,,,,,0,,,,,,,,*48
$GAGGA,144743.01,,,,,0,,,,,,,,*59
$GPVTG,,T,,M,,N,,K,N*2C
$GAVTG,,T,,M,,N,,K,N*3D
$GARMC,,V,,,,,,,,,,N,V*38
$GPGSA,A,1,,,,,,,,,,,,,,,,*32
$GAGSA,A,1,,,,,,,,,,,,,,,,*23
$GPRMC,,V,,,,,,,,,,N,V*29
$GPGSV,4,1,13,02,21,067,20,08,55,293,20,18,18,063,13,21,25,248,19,1*66
$GPGSV,4,2,13,23,44,064,23,27,85,098,18,07,13,291,,10,55,122,,1*6D
$GPGSV,4,3,13,13,02,005,,15,08,030,,16,42,185,,26,10,171,,1*64
$GPGSV,4,4,13,30,09,322,,1*5F
$GPGGA,144744.01,,,,,0,,,,,,,,*4F
$GAGGA,144744.01,,,,,0,,,,,,,,*5E
$GPVTG,,T,,M,,N,,K,N*2C
$GAVTG,,T,,M,,N,,K,N*3D
$GARMC,,V,,,,,,,,,,N,V*38
$GPGSA,A,1,,,,,,,,,,,,,,,,*32
$GAGSA,A,1,,,,,,,,,,,,,,,,*23
$GPRMC,,V,,,,,,,,,,N,V*29
$GPGSV,4,1,13,02,21,067,20,08,55,293,20,18,18,063,13,21,25,248,19,1*66
$GPGSV,4,2,13,23,44,064,23,27,85,098,20,07,13,291,,10,55,122,,1*66
$GPGSV,4,3,13,13,02,005,,15,08,030,,16,42,185,,26,10,171,,1*64
$GPGSV,4,4,13,30,09,322,,1*5F
$GPGGA,144745.01,,,,,0,,,,,,,,*4E
$GAGGA,144745.01,,,,,0,,,,,,,,*5F
$GPVTG,,T,,M,,N,,K,N*2C
$GAVTG,,T,,M,,N,,K,N*3D
$GARMC,,V,,,,,,,,,,N,V*38
$GPGSA,A,1,,,,,,,,,,,,,,,,*32
$GAGSA,A,1,,,,,,,,,,,,,,,,*23
$GPRMC,,V,,,,,,,,,,N,V*29
$GPGSV,4,1,13,02,21,067,21,08,55,293,22,18,18,063,13,21,25,248,19,1*65
$GPGSV,4,2,13,23,44,064,20,27,85,098,20,07,13,291,,10,55,122,,1*65
$GPGSV,4,3,13,13,02,005,,15,08,030,,16,42,185,,26,10,171,,1*64
$GPGSV,4,4,13,30,09,322,,1*5F
$GPGGA,144746.01,,,,,0,,,,,,,,*4D
$GAGGA,144746.01,,,,,0,,,,,,,,*5C
$GPVTG,,T,,M,,N,,K,N*2C
$GAVTG,,T,,M,,N,,K,N*3D
$GARMC,,V,,,,,,,,,,N,V*38
$GPGSA,A,1,,,,,,,,,,,,,,,,*32
$GAGSA,A,1,,,,,,,,,,,,,,,,*23
$GPRMC,,V,,,,,,,,,,N,V*29
$GPGSV,4,1,13,02,21,067,24,08,55,293,22,18,18,063,17,21,25,248,17,1*6A
$GPGSV,4,2,13,23,44,064,22,27,85,098,20,07,13,291,,10,55,122,,1*67
$GPGSV,4,3,13,13,02,005,,15,08,030,,16,42,185,,26,10,171,,1*64
$GPGSV,4,4,13,30,09,322,,1*5F
$GPGGA,144747.01,,,,,0,,,,,,,,*4C
$GAGGA,144747.01,,,,,0,,,,,,,,*5D
$GPVTG,,T,,M,,N,,K,N*2C
$GAVTG,,T,,M,,N,,K,N*3D
$GARMC,,V,,,,,,,,,,N,V*38
$GPGSA,A,1,,,,,,,,,,,,,,,,*32
$GAGSA,A,1,,,,,,,,,,,,,,,,*23
$GPRMC,,V,,,,,,,,,,N,V*29
$GPGSV,4,1,13,02,21,067,23,08,55,293,21,18,18,063,17,21,25,248,17,1*6E
$GPGSV,4,2,13,23,44,064,23,27,85,101,20,07,13,291,,10,55,122,,1*67
$GPGSV,4,3,13,13,02,005,,15,08,030,,16,42,185,,26,10,171,,1*64
$GPGSV,4,4,13,30,09,322,,1*5F
$GPGGA,144748.01,,,,,0,,,,,,,,*43
$GAGGA,144748.01,,,,,0,,,,,,,,*52
$GPVTG,,T,,M,,N,,K,N*2C
$GAVTG,,T,,M,,N,,K,N*3D
$GARMC,,V,,,,,,,,,,N,V*38
$GPGSA,A,1,,,,,,,,,,,,,,,,*32
$GAGSA,A,1,,,,,,,,,,,,,,,,*23
$GPRMC,,V,,,,,,,,,,N,V*29
$GPGSV,4,1,13,02,21,067,24,08,55,293,22,18,18,063,17,21,25,248,17,1*6A
$GPGSV,4,2,13,23,44,064,23,27,85,101,20,07,13,291,,10,55,122,,1*67
$GPGSV,4,3,13,13,02,005,,15,08,030,,16,42,185,,26,10,171,,1*64
$GPGSV,4,4,13,30,09,322,,1*5F
$GPGGA,144749.01,,,,,0,,,,,,,,*42
$GAGGA,144749.01,,,,,0,,,,,,,,*53
$GPVTG,,T,,M,,N,,K,N*2C
$GAVTG,,T,,M,,N,,K,N*3D
$GARMC,,V,,,,,,,,,,N,V*38
$GPGSA,A,1,,,,,,,,,,,,,,,,*32
$GAGSA,A,1,,,,,,,,,,,,,,,,*23
$GPRMC,,V,,,,,,,,,,N,V*29
$GPGSV,4,1,13,02,21,067,23,08,55,293,22,18,18,063,18,21,25,248,17,1*62
$GPGSV,4,2,13,23,44,064,22,27,85,101,20,07,13,291,,10,55,122,,1*66
$GPGSV,4,3,13,13,02,005,,15,08,030,,16,42,185,,26,10,171,,1*64
$GPGSV,4,4,13,30,09,322,,1*5F
$GPGGA,144750.01,,,,,0,,,,,,,,*4A
$GAGGA,144750.01,,,,,0,,,,,,,,*5B
$GPVTG,,T,,M,,N,,K,N*2C
$GAVTG,,T,,M,,N,,K,N*3D
$GARMC,,V,,,,,,,,,,N,V*38
$GPGSA,A,1,,,,,,,,,,,,,,,,*32
$GAGSA,A,1,,,,,,,,,,,,,,,,*23
$GPRMC,,V,,,,,,,,,,N,V*29
$GPGSV,4,1,13,02,21,067,23,08,55,293,21,18,18,063,18,21,25,248,17,1*61
$GPGSV,4,2,13,23,44,064,24,27,85,101,20,07,13,291,,10,55,122,,1*60
$GPGSV,4,3,13,13,02,005,,15,08,030,,16,42,185,,26,10,171,,1*64
$GPGSV,4,4,13,30,09,322,,1*5F
$GPGGA,144751.01,,,,,0,,,,,,,,*4B
$GAGGA,144751.01,,,,,0,,,,,,,,*5A
$GPVTG,,T,,M,,N,,K,N*2C
$GAVTG,,T,,M,,N,,K,N*3D
$GARMC,,V,,,,,,,,,,N,V*38
$GPGSA,A,1,,,,,,,,,,,,,,,,*32
$GAGSA,A,1,,,,,,,,,,,,,,,,*23
$GPRMC,,V,,,,,,,,,,N,V*29
$GPGSV,4,1,13,02,21,067,21,08,55,293,23,18,18,063,18,21,25,248,17,1*61
$GPGSV,4,2,13,23,44,064,23,27,85,101,18,07,13,291,,10,55,122,,1*6C
$GPGSV,4,3,13,13,02,005,,15,08,030,,16,42,185,,26,10,171,,1*64
$GPGSV,4,4,13,30,09,322,,1*5F
$GPGGA,144752.01,,,,,0,,,,,,,,*48
$GAGGA,144752.01,,,,,0,,,,,,,,*59
$GPVTG,,T,,M,,N,,K,N*2C
$GAVTG,,T,,M,,N,,K,N*3D
$GARMC,,V,,,,,,,,,,N,V*38
$GPGSA,A,1,,,,,,,,,,,,,,,,*32
$GAGSA,A,1,,,,,,,,,,,,,,,,*23
$GPRMC,,V,,,,,,,,,,N,V*29
$GPGSV,4,1,13,02,21,067,21,08,55,293,21,18,18,063,18,21,25,248,17,1*63
$GPGSV,4,2,13,23,44,064,23,27,85,101,18,07,13,291,,10,55,122,,1*6C
$GPGSV,4,3,13,13,02,005,,15,08,030,,16,42,185,,26,10,171,,1*64
$GPGSV,4,4,13,30,09,322,,1*5F
$GPGGA,144753.01,,,,,0,,,,,,,,*49
$GAGGA,144753.01,,,,,0,,,,,,,,*58
$GPVTG,,T,,M,,N,,K,N*2C
$GAVTG,,T,,M,,N,,K,N*3D
$GARMC,,V,,,,,,,,,,N,V*38
$GPGSA,A,1,,,,,,,,,,,,,,,,*32
$GAGSA,A,1,,,,,,,,,,,,,,,,*23
$GPRMC,,V,,,,,,,,,,N,V*29
$GPGSV,4,1,13,02,21,067,20,08,55,293,23,18,18,063,18,21,25,248,17,1*60
$GPGSV,4,2,13,23,44,064,22,27,85,101,18,07,13,291,,10,55,122,,1*6D
$GPGSV,4,3,13,13,02,005,,15,08,030,,16,42,185,,26,10,171,,1*64
$GPGSV,4,4,13,30,09,322,,1*5F
$GPGGA,144754.01,,,,,0,,,,,,,,*4E
$GAGGA,144754.01,,,,,0,,,,,,,,*5F
$GPVTG,,T,,M,,N,,K,N*2C
$GAVTG,,T,,M,,N,,K,N*3D
$GARMC,,V,,,,,,,,,,N,V*38
$GPGSA,A,1,,,,,,,,,,,,,,,,*32
$GAGSA,A,1,,,,,,,,,,,,,,,,*23
$GPRMC,,V,,,,,,,,,,N,V*29
$GPGSV,4,1,13,02,21,067,23,08,55,293,23,18,18,063,18,21,25,248,17,1*63
$GPGSV,4,2,13,23,44,064,23,27,85,101,18,30,09,322,16,07,13,291,,1*62
$GPGSV,4,3,13,10,55,122,,13,02,005,,15,08,030,,16,42,185,,1*66
$GPGSV,4,4,13,26,10,171,,1*54
$GPGGA,144755.01,,,,,0,,,,,,,,*4F
$GAGGA,144755.01,,,,,0,,,,,,,,*5E
$GPVTG,,T,,M,,N,,K,N*2C
$GAVTG,,T,,M,,N,,K,N*3D
$GARMC,,V,,,,,,,,,,N,V*38
$GPGSA,A,1,,,,,,,,,,,,,,,,*32
$GAGSA,A,1,,,,,,,,,,,,,,,,*23
$GPRMC,,V,,,,,,,,,,N,V*29
$GPGSV,4,1,13,02,21,067,23,08,55,293,23,18,18,063,18,21,25,248,17,1*63
$GPGSV,4,2,13,23,44,064,23,27,85,101,18,30,09,322,16,07,13,289,,1*6B
$GPGSV,4,3,13,10,55,122,,13,02,005,,15,08,030,,16,42,185,,1*66
$GPGSV,4,4,13,26,10,171,,1*54
$GPGGA,144756.01,,,,,0,,,,,,,,*4C
$GAGGA,144756.01,,,,,0,,,,,,,,*5D
$GPVTG,,T,,M,,N,,K,N*2C
$GAVTG,,T,,M,,N,,K,N*3D
$GARMC,,V,,,,,,,,,,N,V*38
$GPGSA,A,1,,,,,,,,,,,,,,,,*32
$GAGSA,A,1,,,,,,,,,,,,,,,,*23
$GPRMC,,V,,,,,,,,,,N,V*29
$GPGSV,4,1,13,02,21,067,23,08,55,293,21,18,18,063,18,21,25,248,17,1*61
$GPGSV,4,2,13,23,44,064,23,27,85,101,18,30,09,322,16,07,13,289,,1*6B
$GPGSV,4,3,13,10,55,122,,13,02,005,,15,08,030,,16,42,185,,1*66
$GPGSV,4,4,13,26,10,171,,1*54
$GPGGA,144757.01,,,,,0,,,,,,,,*4D
$GAGGA,144757.01,,,,,0,,,,,,,,*5C
$GPVTG,,T,,M,,N,,K,N*2C
$GAVTG,,T,,M,,N,,K,N*3D
$GARMC,,V,,,,,,,,,,N,V*38
$GPGSA,A,1,,,,,,,,,,,,,,,,*32
$GAGSA,A,1,,,,,,,,,,,,,,,,*23
$GPRMC,,V,,,,,,,,,,N,V*29
$GPGSV,4,1,13,02,21,067,23,08,55,293,23,18,18,063,18,21,25,248,17,1*63
$GPGSV,4,2,13,23,44,064,24,27,85,101,19,30,09,322,16,07,13,289,,1*6D
$GPGSV,4,3,13,10,55,122,,13,02,005,,15,08,030,,16,42,185,,1*66
$GPGSV,4,4,13,26,10,171,,1*54
$GPGGA,144758.01,,,,,0,,,,,,,,*42
$GAGGA,144758.01,,,,,0,,,,,,,,*53
$GPVTG,,T,,M,,N,,K,N*2C
$GAVTG,,T,,M,,N,,K,N*3D
$GARMC,,V,,,,,,,,,,N,V*38
$GPGSA,A,1,,,,,,,,,,,,,,,,*32
$GAGSA,A,1,,,,,,,,,,,,,,,,*23
$GPRMC,,V,,,,,,,,,,N,V*29
$GPGSV,4,1,13,02,21,067,22,08,55,293,22,18,18,063,18,21,25,248,17,1*63
$GPGSV,4,2,13,23,44,064,23,27,85,101,19,30,09,322,16,07,13,289,,1*6A
$GPGSV,4,3,13,10,55,122,,13,02,005,,15,08,030,,16,42,185,,1*66
$GPGSV,4,4,13,26,10,171,,1*54
$GPGGA,144759.01,,,,,0,,,,,,,,*43
$GAGGA,144759.01,,,,,0,,,,,,,,*52
$GPVTG,,T,,M,,N,,K,N*2C
$GAVTG,,T,,M,,N,,K,N*3D
$GARMC,,V,,,,,,,,,,N,V*38
$GPGSA,A,1,,,,,,,,,,,,,,,,*32
$GAGSA,A,1,,,,,,,,,,,,,,,,*23
$GPRMC,,V,,,,,,,,,,N,V*29
$GPGSV,4,1,13,02,21,067,22,08,55,293,24,18,18,063,15,21,25,248,17,1*68
$GPGSV,4,2,13,23,44,064,22,27,85,101,19,30,09,322,16,07,13,289,,1*6B
$GPGSV,4,3,13,10,55,122,,13,02,005,,15,08,030,,16,42,185,,1*66
$GPGSV,4,4,13,26,10,171,,1*54
$GPGGA,144800.01,,,,,0,,,,,,,,*40
$GAGGA,144800.01,,,,,0,,,,,,,,*51
$GPVTG,,T,,M,,N,,K,N*2C
$GAVTG,,T,,M,,N,,K,N*3D
$GARMC,,V,,,,,,,,,,N,V*38
$GPGSA,A,1,,,,,,,,,,,,,,,,*32
$GAGSA,A,1,,,,,,,,,,,,,,,,*23
$GPRMC,,V,,,,,,,,,,N,V*29
$GPGSV,4,1,13,02,21,067,21,08,55,293,22,18,18,063,15,21,25,248,17,1*6D
$GPGSV,4,2,13,23,44,064,22,27,85,101,19,30,09,322,16,07,13,289,,1*6B
$GPGSV,4,3,13,10,55,122,,13,02,005,,15,08,030,,16,42,185,,1*66
$GPGSV,4,4,13,26,10,171,,1*54
$GPGGA,144801.01,,,,,0,,,,,,,,*41
$GAGGA,144801.01,,,,,0,,,,,,,,*50
$GPVTG,,T,,M,,N,,K,N*2C
$GAVTG,,T,,M,,N,,K,N*3D
$GARMC,,V,,,,,,,,,,N,V*38
$GPGSA,A,1,,,,,,,,,,,,,,,,*32
$GAGSA,A,1,,,,,,,,,,,,,,,,*23
$GPRMC,,V,,,,,,,,,,N,V*29
$GPGSV,4,1,13,02,21,067,21,08,55,293,22,18,18,063,15,21,25,248,16,1*6C
$GPGSV,4,2,13,23,44,064,20,27,85,101,19,30,09,322,16,07,13,289,,1*69
$GPGSV,4,3,13,10,55,122,,13,02,005,,15,08,030,,16,42,185,,1*66
$GPGSV,4,4,13,26,10,171,,1*54
$GPGGA,144802.01,,,,,0,,,,,,,,*42
$GAGGA,144802.01,,,,,0,,,,,,,,*53
$GPVTG,,T,,M,,N,,K,N*2C
$GAVTG,,T,,M,,N,,K,N*3D
$GARMC,,V,,,,,,,,,,N,V*38
$GPGSA,A,1,,,,,,,,,,,,,,,,*32
$GAGSA,A,1,,,,,,,,,,,,,,,,*23
$GPRMC,,V,,,,,,,,,,N,V*29
$GPGSV,4,1,13,02,21,067,21,08,55,293,22,18,18,063,15,21,25,248,16,1*6C
$GPGSV,4,2,13,23,44,064,23,27,85,101,21,30,09,322,16,07,13,289,,1*61
$GPGSV,4,3,13,10,55,122,,13,02,005,,15,08,030,,16,42,185,,1*66
$GPGSV,4,4,13,26,10,171,,1*54
$GPGGA,144803.01,,,,,0,,,,,,,,*43
$GAGGA,144803.01,,,,,0,,,,,,,,*52
$GPVTG,,T,,M,,N,,K,N*2C
$GAVTG,,T,,M,,N,,K,N*3D
$GARMC,,V,,,,,,,,,,N,V*38
$GPGSA,A,1,,,,,,,,,,,,,,,,*32
$GAGSA,A,1,,,,,,,,,,,,,,,,*23
$GPRMC,,V,,,,,,,,,,N,V*29
$GPGSV,4,1,13,02,21,067,20,08,55,293,23,18,18,063,15,21,25,248,16,1*6C
$GPGSV,4,2,13,23,44,064,23,27,85,101,21,30,09,322,16,07,13,289,,1*61
$GPGSV,4,3,13,10,55,122,,13,02,005,,15,08,030,,16,42,185,,1*66
$GPGSV,4,4,13,26,10,171,,1*54
$GPGGA,144804.01,,,,,0,,,,,,,,*44
$GAGGA,144804.01,,,,,0,,,,,,,,*55
$GPVTG,,T,,M,,N,,K,N*2C
$GAVTG,,T,,M,,N,,K,N*3D
$GARMC,,V,,,,,,,,,,N,V*38
$GPGSA,A,1,,,,,,,,,,,,,,,,*32
$GAGSA,A,1,,,,,,,,,,,,,,,,*23
$GPRMC,,V,,,,,,,,,,N,V*29
$GPGSV,4,1,13,02,21,067,20,08,55,293,23,18,18,063,15,21,25,248,16,1*6C
$GPGSV,4,2,13,23,44,064,21,27,85,101,20,30,09,322,16,07,13,289,,1*62
$GPGSV,4,3,13,10,55,122,,13,02,005,,15,08,030,,16,42,185,,1*66
$GPGSV,4,4,13,26,10,171,,1*54
$GPGGA,144805.01,,,,,0,,,,,,,,*45
$GAGGA,144805.01,,,,,0,,,,,,,,*54
$GPVTG,,T,,M,,N,,K,N*2C
$GAVTG,,T,,M,,N,,K,N*3D
$GARMC,,V,,,,,,,,,,N,V*38
$GPGSA,A,1,,,,,,,,,,,,,,,,*32
$GAGSA,A,1,,,,,,,,,,,,,,,,*23
$GPRMC,,V,,,,,,,,,,N,V*29
$GPGSV,4,1,13,02,21,067,20,08,55,293,21,18,18,063,15,21,25,248,16,1*6E
$GPGSV,4,2,13,23,44,064,21,27,85,101,20,30,09,322,12,07,13,289,,1*66
$GPGSV,4,3,13,10,55,122,,13,02,005,,15,08,030,,16,42,185,,1*66
$GPGSV,4,4,13,26,10,171,,1*54
$GPGGA,144806.01,,,,,0,,,,,,,,*46
$GAGGA,144806.01,,,,,0,,,,,,,,*57
$GPVTG,,T,,M,,N,,K,N*2C
$GAVTG,,T,,M,,N,,K,N*3D
$GARMC,,V,,,,,,,,,,N,V*38
$GPGSA,A,1,,,,,,,,,,,,,,,,*32
$GAGSA,A,1,,,,,,,,,,,,,,,,*23
$GPRMC,,V,,,,,,,,,,N,V*29
$GPGSV,4,1,13,02,21,067,21,08,55,293,21,18,18,063,15,21,25,248,16,1*6F
$GPGSV,4,2,13,23,44,064,20,27,85,101,21,30,09,322,12,07,13,289,,1*66
$GPGSV,4,3,13,10,55,122,,13,02,005,,15,08,030,,16,42,185,,1*66
$GPGSV,4,4,13,26,10,171,,1*54
$GPGGA,144807.01,,,,,0,,,,,,,,*47
$GAGGA,144807.01,,,,,0,,,,,,,,*56
$GPVTG,,T,,M,,N,,K,N*2C
$GAVTG,,T,,M,,N,,K,N*3D
$GARMC,,V,,,,,,,,,,N,V*38
$GPGSA,A,1,,,,,,,,,,,,,,,,*32
$GAGSA,A,1,,,,,,,,,,,,,,,,*23
$GPRMC,,V,,,,,,,,,,N,V*29
$GPGSV,4,1,13,02,21,067,23,08,55,293,22,18,18,063,16,21,25,248,16,1*6D
$GPGSV,4,2,13,23,44,064,22,27,85,101,21,30,09,322,12,07,13,289,,1*64
$GPGSV,4,3,13,10,55,122,,13,02,005,,15,08,030,,16,42,185,,1*66
$GPGSV,4,4,13,26,10,171,,1*54
$GPGGA,144808.01,,,,,0,,,,,,,,*48
$GAGGA,144808.01,,,,,0,,,,,,,,*59
$GPVTG,,T,,M,,N,,K,N*2C
$GAVTG,,T,,M,,N,,K,N*3D
$GARMC,,V,,,,,,,,,,N,V*38
$GPGSA,A,1,,,,,,,,,,,,,,,,*32
$GAGSA,A,1,,,,,,,,,,,,,,,,*23
$GPRMC,,V,,,,,,,,,,N,V*29
$GPGSV,4,1,13,02,21,067,23,08,55,293,22,18,18,063,16,21,25,248,16,1*6D
$GPGSV,4,2,13,23,44,064,24,27,85,101,20,30,09,322,12,07,13,289,,1*63
$GPGSV,4,3,13,10,55,120,,13,02,005,,15,08,030,,16,42,185,,1*64
$GPGSV,4,4,13,26,10,171,,1*54
$GPGGA,144809.01,,,,,0,,,,,,,,*49
$GAGGA,144809.01,,,,,0,,,,,,,,*58
$GPVTG,,T,,M,,N,,K,N*2C
$GAVTG,,T,,M,,N,,K,N*3D
$GARMC,,V,,,,,,,,,,N,V*38
$GPGSA,A,1,,,,,,,,,,,,,,,,*32
$GAGSA,A,1,,,,,,,,,,,,,,,,*23
$GPRMC,144809.01,A,5101.573300,N,00342.794582,E,0.6,335.2,210423,,,A,V*25
$GPGGA,144809.01,5101.573300,N,00342.794582,E,1,06,3.6,2.2,M,47.0,M,,*6A
$GAGGA,144809.01,5101.573300,N,00342.794582,E,1,00,3.6,2.2,M,47.0,M,,*7D
$GPVTG,335.2,T,335.2,M,0.6,N,1.1,K,A*25
$GAVTG,335.2,T,335.2,M,0.6,N,1.1,K,A*34
$GARMC,144809.01,A,5101.573300,N,00342.794582,E,0.6,335.2,210423,,,A,V*34
$GPGSA,A,3,02,08,18,23,27,30,,,,,,,3.8,3.6,1.0,1*24
$GAGSA,A,3,,,,,,,,,,,,,3.8,3.6,1.0,3*33
$GPRMC,,V,,,,,,,,,,N,V*29
$GPGSV,4,1,13,02,21,067,20,08,55,293,21,18,18,063,16,21,25,248,16,1*6D
$GPGSV,4,2,13,23,44,064,22,27,85,101,20,30,09,322,12,07,13,289,,1*65
$GPGSV,4,3,13,10,55,120,,13,02,005,,15,08,030,,16,42,185,,1*64
$GPGSV,4,4,13,26,10,171,,1*54
$GPGGA,144810.01,,,,,0,,,,,,,,*41
$GAGGA,144810.01,,,,,0,,,,,,,,*50
$GPVTG,,T,,M,,N,,K,N*2C
$GAVTG,,T,,M,,N,,K,N*3D
$GARMC,,V,,,,,,,,,,N,V*38
$GPGSA,A,1,,,,,,,,,,,,,,,,*32
$GAGSA,A,1,,,,,,,,,,,,,,,,*23
$GPRMC,,V,,,,,,,,,,N,V*29
$GPGSV,4,1,13,02,21,067,20,08,55,293,23,18,18,063,16,21,25,248,16,1*6F
$GPGSV,4,2,13,23,44,064,23,27,85,101,20,30,09,322,12,07,13,289,,1*64
$GPGSV,4,3,13,10,55,120,,13,02,005,,15,08,030,,16,42,185,,1*64
$GPGSV,4,4,13,26,10,171,,1*54
$GPGGA,144811.01,,,,,0,,,,,,,,*40
$GAGGA,144811.01,,,,,0,,,,,,,,*51
$GPVTG,,T,,M,,N,,K,N*2C
$GAVTG,,T,,M,,N,,K,N*3D
$GARMC,,V,,,,,,,,,,N,V*38
$GPGSA,A,1,,,,,,,,,,,,,,,,*32
$GAGSA,A,1,,,,,,,,,,,,,,,,*23
$GPRMC,,V,,,,,,,,,,N,V*29
$GPGSV,4,1,13,02,21,067,20,08,55,293,23,18,17,063,16,21,25,248,16,1*60
$GPGSV,4,2,13,23,44,064,23,27,85,101,20,30,09,322,12,07,13,289,,1*64
$GPGSV,4,3,13,10,55,120,,13,02,005,,15,08,030,,16,42,185,,1*64
$GPGSV,4,4,13,26,10,171,,1*54
$GPGGA,144812.01,,,,,0,,,,,,,,*43
$GAGGA,144812.01,,,,,0,,,,,,,,*52
$GPVTG,,T,,M,,N,,K,N*2C
$GAVTG,,T,,M,,N,,K,N*3D
$GARMC,,V,,,,,,,,,,N,V*38
$GPGSA,A,1,,,,,,,,,,,,,,,,*32
$GAGSA,A,1,,,,,,,,,,,,,,,,*23
$GPRMC,,V,,,,,,,,,,N,V*29
$GPGSV,4,1,13,02,21,067,20,08,55,293,21,18,17,063,16,21,25,248,16,1*62
$GPGSV,4,2,13,23,44,064,21,27,85,101,20,30,09,322,12,07,13,289,,1*66
$GPGSV,4,3,13,10,55,120,,13,02,005,,15,08,030,,16,42,185,,1*64
$GPGSV,4,4,13,26,10,171,,1*54
$GPGGA,144813.01,,,,,0,,,,,,,,*42
$GAGGA,144813.01,,,,,0,,,,,,,,*53
$GPVTG,,T,,M,,N,,K,N*2C
$GAVTG,,T,,M,,N,,K,N*3D
$GARMC,,V,,,,,,,,,,N,V*38
$GPGSA,A,1,,,,,,,,,,,,,,,,*32
$GAGSA,A,1,,,,,,,,,,,,,,,,*23
$GPRMC,,V,,,,,,,,,,N,V*29
$GPGSV,4,1,13,02,21,067,20,08,55,293,23,18,17,063,16,21,25,248,16,1*60
$GPGSV,4,2,13,23,44,064,21,27,85,101,20,30,09,322,12,07,13,289,,1*66
$GPGSV,4,3,13,10,55,120,,13,02,005,,15,08,030,,16,42,185,,1*64
$GPGSV,4,4,13,26,10,171,,1*54
$GPGGA,144814.01,,,,,0,,,,,,,,*45
$GAGGA,144814.01,,,,,0,,,,,,,,*54
$GPVTG,,T,,M,,N,,K,N*2C
$GAVTG,,T,,M,,N,,K,N*3D
$GARMC,,V,,,,,,,,,,N,V*38
$GPGSA,A,1,,,,,,,,,,,,,,,,*32
$GAGSA,A,1,,,,,,,,,,,,,,,,*23
$GPRMC,,V,,,,,,,,,,N,V*29
$GPGSV,4,1,13,02,21,067,20,08,55,293,23,18,17,063,16,21,25,248,16,1*60
$GPGSV,4,2,13,23,44,064,20,27,85,101,18,30,09,322,12,07,13,289,,1*6C
$GPGSV,4,3,13,10,55,120,,13,02,005,,15,08,030,,16,42,185,,1*64
$GPGSV,4,4,13,26,10,171,,1*54
$GPGGA,144815.01,,,,,0,,,,,,,,*44
$GAGGA,144815.01,,,,,0,,,,,,,,*55
$GPVTG,,T,,M,,N,,K,N*2C
$GAVTG,,T,,M,,N,,K,N*3D
$GARMC,,V,,,,,,,,,,N,V*38
$GPGSA,A,1,,,,,,,,,,,,,,,,*32
$GAGSA,A,1,,,,,,,,,,,,,,,,*23
$GPRMC,,V,,,,,,,,,,N,V*29
$GPGSV,4,1,13,02,21,067,20,08,55,293,22,18,17,063,16,21,25,248,16,1*61
$GPGSV,4,2,13,23,44,064,20,27,85,101,18,30,09,322,12,07,13,289,,1*6C
$GPGSV,4,3,13,10,55,120,,13,02,005,,15,08,030,,16,42,185,,1*64
$GPGSV,4,4,13,26,10,171,,1*54
$GPGGA,144816.01,,,,,0,,,,,,,,*47
$GAGGA,144816.01,,,,,0,,,,,,,,*56
$GPVTG,,T,,M,,N,,K,N*2C
$GAVTG,,T,,M,,N,,K,N*3D
$GARMC,,V,,,,,,,,,,N,V*38
$GPGSA,A,1,,,,,,,,,,,,,,,,*32
$GAGSA,A,1,,,,,,,,,,,,,,,,*23
$GPRMC,,V,,,,,,,,,,N,V*29
$GPGSV,4,1,13,02,21,067,20,08,55,293,23,18,17,063,16,21,25,248,16,1*60
$GPGSV,4,2,13,23,44,064,20,27,85,101,18,30,09,322,12,07,13,289,,1*6C
$GPGSV,4,3,13,10,55,120,,13,02,005,,15,08,030,,16,42,185,,1*64
$GPGSV,4,4,13,26,10,171,,1*54
$GPGGA,144817.01,,,,,0,,,,,,,,*46
$GAGGA,144817.01,,,,,0,,,,,,,,*57
$GPVTG,,T,,M,,N,,K,N*2C
$GAVTG,,T,,M,,N,,K,N*3D
$GARMC,,V,,,,,,,,,,N,V*38
$GPGSA,A,1,,,,,,,,,,,,,,,,*32
$GAGSA,A,1,,,,,,,,,,,,,,,,*23
$GPRMC,,V,,,,,,,,,,N,V*29
$GPGSV,4,1,13,02,21,067,20,08,55,293,23,18,17,063,16,21,25,248,16,1*60
$GPGSV,4,2,13,23,44,064,20,27,85,101,18,30,09,322,12,07,13,289,,1*6C
$GPGSV,4,3,13,10,55,120,,13,02,005,,15,08,030,,16,42,185,,1*64
$GPGSV,4,4,13,26,10,171,,1*54
$GPGGA,144818.01,,,,,0,,,,,,,,*49
$GAGGA,144818.01,,,,,0,,,,,,,,*58
$GPVTG,,T,,M,,N,,K,N*2C
$GAVTG,,T,,M,,N,,K,N*3D
$GARMC,,V,,,,,,,,,,N,V*38
$GPGSA,A,1,,,,,,,,,,,,,,,,*32
$GAGSA,A,1,,,,,,,,,,,,,,,,*23
$GPRMC,,V,,,,,,,,,,N,V*29
$GPGSV,4,1,13,02,21,067,21,08,55,293,20,18,17,063,16,21,25,248,16,1*62
$GPGSV,4,2,13,23,44,064,19,27,85,101,18,30,09,322,12,07,13,289,,1*66
$GPGSV,4,3,13,10,55,120,,13,02,005,,15,08,030,,16,42,185,,1*64
$GPGSV,4,4,13,26,10,171,,1*54
$GPGGA,144819.01,,,,,0,,,,,,,,*48
$GAGGA,144819.01,,,,,0,,,,,,,,*59
$GPVTG,,T,,M,,N,,K,N*2C
$GAVTG,,T,,M,,N,,K,N*3D
$GARMC,,V,,,,,,,,,,N,V*38
$GPGSA,A,1,,,,,,,,,,,,,,,,*32
$GAGSA,A,1,,,,,,,,,,,,,,,,*23
$GPRMC,,V,,,,,,,,,,N,V*29
$GPGSV,4,1,13,02,21,067,21,08,55,293,22,18,17,063,11,21,25,248,16,1*67
$GPGSV,4,2,13,23,44,064,23,27,85,101,20,30,09,322,12,07,13,289,,1*64
$GPGSV,4,3,13,10,55,120,,13,02,005,,15,08,030,,16,42,185,,1*64
$GPGSV,4,4,13,26,10,171,,1*54
$GPGGA,144820.01,,,,,0,,,,,,,,*42
$GAGGA,144820.01,,,,,0,,,,,,,,*53
$GPVTG,,T,,M,,N,,K,N*2C
$GAVTG,,T,,M,,N,,K,N*3D
$GARMC,,V,,,,,,,,,,N,V*38
$GPGSA,A,1,,,,,,,,,,,,,,,,*32
$GAGSA,A,1,,,,,,,,,,,,,,,,*23
$GPRMC,,V,,,,,,,,,,N,V*29
$GPGSV,4,1,13,02,20,067,21,08,55,293,22,18,17,063,11,21,25,248,16,1*66
$GPGSV,4,2,13,23,43,064,22,27,85,102,20,30,09,322,12,07,13,289,,1*61
$GPGSV,4,3,13,10,55,120,,13,02,005,,15,08,030,,16,42,185,,1*64
$GPGSV,4,4,13,26,10,171,,1*54
$GPGGA,144821.01,,,,,0,,,,,,,,*43
$GAGGA,144821.01,,,,,0,,,,,,,,*52
$GPVTG,,T,,M,,N,,K,N*2C
$GAVTG,,T,,M,,N,,K,N*3D
$GARMC,,V,,,,,,,,,,N,V*38
$GPGSA,A,1,,,,,,,,,,,,,,,,*32
$GAGSA,A,1,,,,,,,,,,,,,,,,*23
$GPRMC,,V,,,,,,,,,,N,V*29
$GPGSV,4,1,13,02,20,067,19,08,55,293,22,18,17,063,11,21,25,248,16,1*6D
$GPGSV,4,2,13,23,43,064,23,27,85,102,19,30,09,322,12,07,13,289,,1*6A
$GPGSV,4,3,13,10,55,120,,13,02,005,,15,08,030,,16,42,185,,1*64
$GPGSV,4,4,13,26,10,171,,1*54
$GPGGA,144822.01,,,,,0,,,,,,,,*40
$GAGGA,144822.01,,,,,0,,,,,,,,*51
$GPVTG,,T,,M,,N,,K,N*2C
$GAVTG,,T,,M,,N,,K,N*3D
$GARMC,,V,,,,,,,,,,N,V*38
$GPGSA,A,1,,,,,,,,,,,,,,,,*32
$GAGSA,A,1,,,,,,,,,,,,,,,,*23
$GPRMC,,V,,,,,,,,,,N,V*29
$GPGSV,4,1,13,02,20,067,19,08,55,293,22,18,17,063,11,21,25,248,15,1*6E
$GPGSV,4,2,13,23,43,063,23,27,85,102,19,30,09,322,12,07,13,289,,1*6D
$GPGSV,4,3,13,10,55,120,,13,02,005,,15,08,030,,16,42,185,,1*64
$GPGSV,4,4,13,26,10,171,,1*54
$GPGGA,144823.01,,,,,0,,,,,,,,*41
$GAGGA,144823.01,,,,,0,,,,,,,,*50
$GPVTG,,T,,M,,N,,K,N*2C
$GAVTG,,T,,M,,N,,K,N*3D
$GARMC,,V,,,,,,,,,,N,V*38
$GPGSA,A,1,,,,,,,,,,,,,,,,*32
$GAGSA,A,1,,,,,,,,,,,,,,,,*23
$GPRMC,,V,,,,,,,,,,N,V*29
$GPGSV,4,1,13,02,20,067,20,08,55,293,21,18,17,063,11,21,25,248,15,1*67
$GPGSV,4,2,13,23,43,063,24,27,85,102,19,30,09,322,12,07,13,289,,1*6A
$GPGSV,4,3,13,10,55,120,,13,02,005,,15,08,030,,16,42,185,,1*64
$GPGSV,4,4,13,26,10,171,,1*54
$GPGGA,144824.01,,,,,0,,,,,,,,*46
$GAGGA,144824.01,,,,,0,,,,,,,,*57
$GPVTG,,T,,M,,N,,K,N*2C
$GAVTG,,T,,M,,N,,K,N*3D
$GARMC,,V,,,,,,,,,,N,V*38
$GPGSA,A,1,,,,,,,,,,,,,,,,*32
$GAGSA,A,1,,,,,,,,,,,,,,,,*23
$GPRMC,,V,,,,,,,,,,N,V*29
$GPGSV,4,1,13,02,20,067,20,08,55,293,21,18,17,063,11,21,25,248,15,1*67
$GPGSV,4,2,13,23,43,063,22,27,85,102,19,30,09,322,12,07,13,289,,1*6C
$GPGSV,4,3,13,10,55,120,,13,02,005,,15,08,030,,16,42,185,,1*64
$GPGSV,4,4,13,26,10,171,,1*54
$GPGGA,144825.01,,,,,0,,,,,,,,*47
$GAGGA,144825.01,,,,,0,,,,,,,,*56
$GPVTG,,T,,M,,N,,K,N*2C
$GAVTG,,T,,M,,N,,K,N*3D
$GARMC,,V,,,,,,,,,,N,V*38
$GPGSA,A,1,,,,,,,,,,,,,,,,*32
$GAGSA,A,1,,,,,,,,,,,,,,,,*23
$GPRMC,,V,,,,,,,,,,N,V*29
$GPGSV,4,1,13,02,20,067,20,08,55,293,22,18,17,063,11,21,25,248,15,1*64
$GPGSV,4,2,13,23,43,063,23,27,85,102,19,07,13,289,,10,55,120,,1*65
$GPGSV,4,3,13,13,02,005,,15,08,030,,16,42,185,,26,10,171,,1*64
$GPGSV,4,4,13,30,09,322,,1*5F
$GPGGA,144826.01,,,,,0,,,,,,,,*44
$GAGGA,144826.01,,,,,0,,,,,,,,*55
$GPVTG,,T,,M,,N,,K,N*2C
$GAVTG,,T,,M,,N,,K,N*3D
$GARMC,,V,,,,,,,,,,N,V*38
$GPGSA,A,1,,,,,,,,,,,,,,,,*32
$GAGSA,A,1,,,,,,,,,,,,,,,,*23
$GPRMC,,V,,,,,,,,,,N,V*29
$GPGSV,4,1,13,02,20,067,20,08,55,293,22,18,17,063,11,21,25,248,15,1*64
$GPGSV,4,2,13,23,43,063,23,27,85,102,19,07,13,289,,10,55,120,,1*65
$GPGSV,4,3,13,13,02,005,,15,08,030,,16,42,185,,26,10,171,,1*64
$GPGSV,4,4,13,30,09,322,,1*5F
$GPGGA,144827.01,,,,,0,,,,,,,,*45
$GAGGA,144827.01,,,,,0,,,,,,,,*54
$GPVTG,,T,,M,,N,,K,N*2C
$GAVTG,,T,,M,,N,,K,N*3D
$GARMC,,V,,,,,,,,,,N,V*38
$GPGSA,A,1,,,,,,,,,,,,,,,,*32
$GAGSA,A,1,,,,,,,,,,,,,,,,*23
$GPRMC,,V,,,,,,,,,,N,V*29
$GPGSV,4,1,13,02,20,067,20,08,55,293,22,18,17,063,11,21,25,248,15,1*64
$GPGSV,4,2,13,23,43,063,23,27,85,102,20,07,13,289,,10,55,120,,1*6F
$GPGSV,4,3,13,13,02,005,,15,08,030,,16,42,185,,26,10,171,,1*64
$GPGSV,4,4,13,30,09,322,,1*5F
$GPGGA,144828.01,,,,,0,,,,,,,,*4A
$GAGGA,144828.01,,,,,0,,,,,,,,*5B
$GPVTG,,T,,M,,N,,K,N*2C
$GAVTG,,T,,M,,N,,K,N*3D
$GARMC,,V,,,,,,,,,,N,V*38
$GPGSA,A,1,,,,,,,,,,,,,,,,*32
$GAGSA,A,1,,,,,,,,,,,,,,,,*23
$GPRMC,,V,,,,,,,,,,N,V*29
$GPGSV,4,1,13,02,20,067,19,08,55,293,22,18,17,063,11,21,25,248,15,1*6E
$GPGSV,4,2,13,23,43,063,23,27,85,102,20,07,13,289,,10,55,120,,1*6F
$GPGSV,4,3,13,13,02,005,,15,08,030,,16,42,185,,26,10,171,,1*64
$GPGSV,4,4,13,30,09,322,,1*5F
$GPGGA,144829.01,,,,,0,,,,,,,,*4B
$GAGGA,144829.01,,,,,0,,,,,,,,*5A
$GPVTG,,T,,M,,N,,K,N*2C
$GAVTG,,T,,M,,N,,K,N*3D
$GARMC,,V,,,,,,,,,,N,V*38
$GPGSA,A,1,,,,,,,,,,,,,,,,*32
$GAGSA,A,1,,,,,,,,,,,,,,,,*23
$GPRMC,,V,,,,,,,,,,N,V*29
$GPGSV,4,1,13,02,20,067,19,08,55,293,23,18,17,063,11,21,25,248,16,1*6C
$GPGSV,4,2,13,23,43,063,22,27,85,102,20,07,13,289,,10,55,120,,1*6E
$GPGSV,4,3,13,13,02,005,,15,08,030,,16,42,185,,26,10,171,,1*64
$GPGSV,4,4,13,30,09,322,,1*5F
$GPGGA,144830.01,,,,,0,,,,,,,,*43
$GAGGA,144830.01,,,,,0,,,,,,,,*52
$GPVTG,,T,,M,,N,,K,N*2C
$GAVTG,,T,,M,,N,,K,N*3D
$GARMC,,V,,,,,,,,,,N,V*38
$GPGSA,A,1,,,,,,,,,,,,,,,,*32
$GAGSA,A,1,,,,,,,,,,,,,,,,*23
$GPRMC,,V,,,,,,,,,,N,V*29
$GPGSV,4,1,13,02,20,067,19,08,55,293,23,18,17,063,11,21,25,248,16,1*6C
$GPGSV,4,2,13,23,43,063,23,27,85,102,20,07,13,289,,10,55,120,,1*6F
$GPGSV,4,3,13,13,02,005,,15,08,030,,16,42,185,,26,10,171,,1*64
$GPGSV,4,4,13,30,09,322,,1*5F
$GPGGA,144831.01,,,,,0,,,,,,,,*42
$GAGGA,144831.01,,,,,0,,,,,,,,*53
$GPVTG,,T,,M,,N,,K,N*2C
$GAVTG,,T,,M,,N,,K,N*3D
$GARMC,,V,,,,,,,,,,N,V*38
$GPGSA,A,1,,,,,,,,,,,,,,,,*32
$GAGSA,A,1,,,,,,,,,,,,,,,,*23
$GPRMC,,V,,,,,,,,,,N,V*29
$GPGSV,4,1,13,02,20,067,19,08,55,293,21,18,17,063,11,21,25,248,16,1*6E
$GPGSV,4,2,13,23,43,063,23,27,85,102,20,07,13,289,,10,55,120,,1*6F
$GPGSV,4,3,13,13,02,005,,15,08,030,,16,42,185,,26,10,171,,1*64
$GPGSV,4,4,13,30,09,322,,1*5F
$GPGGA,144832.01,,,,,0,,,,,,,,*41
$GAGGA,144832.01,,,,,0,,,,,,,,*50
$GPVTG,,T,,M,,N,,K,N*2C
$GAVTG,,T,,M,,N,,K,N*3D
$GARMC,,V,,,,,,,,,,N,V*38
$GPGSA,A,1,,,,,,,,,,,,,,,,*32
$GAGSA,A,1,,,,,,,,,,,,,,,,*23
$GPRMC,,V,,,,,,,,,,N,V*29
$GPGSV,4,1,13,02,20,067,23,08,55,293,21,18,17,063,11,21,25,248,16,1*67
$GPGSV,4,2,13,23,43,063,22,27,85,102,20,07,13,289,,10,55,120,,1*6E
$GPGSV,4,3,13,13,02,005,,15,08,030,,16,42,185,,26,10,171,,1*64
$GPGSV,4,4,13,30,09,322,,1*5F
$GPGGA,144833.02,,,,,0,,,,,,,,*43
$GAGGA,144833.02,,,,,0,,,,,,,,*52
$GPVTG,,T,,M,,N,,K,N*2C
$GAVTG,,T,,M,,N,,K,N*3D
$GARMC,,V,,,,,,,,,,N,V*38
$GPGSA,A,1,,,,,,,,,,,,,,,,*32
$GAGSA,A,1,,,,,,,,,,,,,,,,*23
$GPRMC,,V,,,,,,,,,,N,V*29
$GPGSV,4,1,13,02,20,067,22,08,55,293,22,18,17,063,11,21,25,248,18,1*6B
$GPGSV,4,2,13,23,43,063,22,27,85,102,18,07,13,289,,10,55,120,,1*65
$GPGSV,4,3,13,13,02,005,,15,08,030,,16,41,185,,26,10,171,,1*67
$GPGSV,4,4,13,30,09,322,,1*5F
$GPGGA,144834.00,,,,,0,,,,,,,,*46
$GAGGA,144834.00,,,,,0,,,,,,,,*57
$GPVTG,,T,,M,,N,,K,N*2C
$GAVTG,,T,,M,,N,,K,N*3D
$GARMC,,V,,,,,,,,,,N,V*38
$GPGSA,A,1,,,,,,,,,,,,,,,,*32
$GAGSA,A,1,,,,,,,,,,,,,,,,*23
$GPRMC,,V,,,,,,,,,,N,V*29
$GPGSV,4,1,13,02,20,067,22,08,55,293,20,18,17,063,11,21,25,248,18,1*69
$GPGSV,4,2,13,23,43,063,22,27,85,102,18,07,13,289,,10,55,120,,1*65
$GPGSV,4,3,13,13,02,005,,15,08,030,,16,41,185,,26,10,171,,1*67
$GPGSV,4,4,13,30,09,322,,1*5F
$GPGGA,144835.00,,,,,0,,,,,,,,*47
$GAGGA,144835.00,,,,,0,,,,,,,,*56
$GPVTG,,T,,M,,N,,K,N*2C
$GAVTG,,T,,M,,N,,K,N*3D
$GARMC,,V,,,,,,,,,,N,V*38
$GPGSA,A,1,,,,,,,,,,,,,,,,*32
$GAGSA,A,1,,,,,,,,,,,,,,,,*23
$GPRMC,,V,,,,,,,,,,N,V*29
$GPGSV,4,1,13,02,20,067,22,08,55,293,23,18,17,063,11,21,25,248,18,1*6A
$GPGSV,4,2,13,23,43,063,24,27,85,102,19,07,13,289,,10,55,120,,1*62
$GPGSV,4,3,13,13,02,005,,15,08,030,,16,41,185,,26,10,171,,1*67
$GPGSV,4,4,13,30,09,322,,1*5F
$GPGGA,144836.00,,,,,0,,,,,,,,*44
$GAGGA,144836.00,,,,,0,,,,,,,,*55
$GPVTG,,T,,M,,N,,K,N*2C
$GAVTG,,T,,M,,N,,K,N*3D
$GARMC,,V,,,,,,,,,,N,V*38
$GPGSA,A,1,,,,,,,,,,,,,,,,*32
$GAGSA,A,1,,,,,,,,,,,,,,,,*23
$GPRMC,,V,,,,,,,,,,N,V*29
$GPGSV,4,1,13,02,20,067,23,08,55,293,23,18,17,063,11,21,25,248,18,1*6B
$GPGSV,4,2,13,23,43,063,23,27,85,102,19,07,13,289,,10,55,120,,1*65
$GPGSV,4,3,13,13,02,005,,15,08,030,,16,41,185,,26,10,171,,1*67
$GPGSV,4,4,13,30,09,322,,1*5F
$GPGGA,144837.00,,,,,0,,,,,,,,*45
$GAGGA,144837.00,,,,,0,,,,,,,,*54
$GPVTG,,T,,M,,N,,K,N*2C
$GAVTG,,T,,M,,N,,K,N*3D
$GARMC,,V,,,,,,,,,,N,V*38
$GPGSA,A,1,,,,,,,,,,,,,,,,*32
$GAGSA,A,1,,,,,,,,,,,,,,,,*23
$GPRMC,,V,,,,,,,,,,N,V*29
$GPGSV,4,1,13,02,20,067,22,08,55,293,22,18,17,063,11,21,25,248,18,1*6B
$GPGSV,4,2,13,23,43,063,24,27,85,102,19,07,13,289,,10,55,120,,1*62
$GPGSV,4,3,13,13,02,005,,15,08,030,,16,41,185,,26,10,171,,1*67
$GPGSV,4,4,13,30,09,322,,1*5F
$GPGGA,144838.00,,,,,0,,,,,,,,*4A
$GAGGA,144838.00,,,,,0,,,,,,,,*5B
$GPVTG,,T,,M,,N,,K,N*2C
$GAVTG,,T,,M,,N,,K,N*3D
$GARMC,,V,,,,,,,,,,N,V*38
$GPGSA,A,1,,,,,,,,,,,,,,,,*32
$GAGSA,A,1,,,,,,,,,,,,,,,,*23
$GPRMC,,V,,,,,,,,,,N,V*29
$GPGSV,3,1,12,02,20,067,22,08,55,293,24,21,25,248,18,23,43,063,22,1*62
$GPGSV,3,2,12,27,85,102,19,07,13,289,,10,55,120,,13,02,005,,1*64
$GPGSV,3,3,12,15,08,030,,16,41,185,,26,10,171,,30,09,322,,1*6D
$GPGGA,144839.00,,,,,0,,,,,,,,*4B
$GAGGA,144839.00,,,,,0,,,,,,,,*5A
$GPVTG,,T,,M,,N,,K,N*2C
$GAVTG,,T,,M,,N,,K,N*3D
$GARMC,,V,,,,,,,,,,N,V*38
$GPGSA,A,1,,,,,,,,,,,,,,,,*32
$GAGSA,A,1,,,,,,,,,,,,,,,,*23
$GPRMC,144839.00,A,5101.554487,N,00342.818348,E,0.0,,210423,,,A,V*0E
$GPGGA,144839.00,5101.554487,N,00342.818348,E,1,05,3.1,-13.1,M,47.0,M,,*74
$GAGGA,144839.00,5101.554487,N,00342.818348,E,1,00,3.1,-13.1,M,47.0,M,,*60
$GPVTG,,T,0.0,M,0.0,N,0.0,K,A*0D
$GAVTG,,T,0.0,M,0.0,N,0.0,K,A*1C
$GARMC,144839.00,A,5101.554487,N,00342.818348,E,0.0,,210423,,,A,V*1F
$GPGSA,A,3,02,08,21,23,27,,,,,,,,3.2,3.1,0.9,1*28
$GAGSA,A,3,,,,,,,,,,,,,3.2,3.1,0.9,3*36
$GPRMC,,V,,,,,,,,,,N,V*29
$GPGSV,4,1,13,02,20,067,22,08,55,293,24,21,25,248,18,23,43,063,22,1*64
$GPGSV,4,2,13,27,85,102,19,30,09,322,15,07,13,289,,10,55,120,,1*6A
$GPGSV,4,3,13,13,02,005,,15,08,030,,16,41,185,,18,17,063,,1*6F
$GPGSV,4,4,13,26,10,171,,1*54
$GPGGA,144840.00,,,,,0,,,,,,,,*45
$GAGGA,144840.00,,,,,0,,,,,,,,*54
$GPVTG,,T,,M,,N,,K,N*2C
$GAVTG,,T,,M,,N,,K,N*3D
$GARMC,,V,,,,,,,,,,N,V*38
$GPGSA,A,1,,,,,,,,,,,,,,,,*32
$GAGSA,A,1,,,,,,,,,,,,,,,,*23
$GPRMC,,V,,,,,,,,,,N,V*29
$GPGSV,4,1,13,02,20,067,19,08,55,293,21,21,25,248,18,23,43,063,21,1*6A
$GPGSV,4,2,13,27,85,102,19,30,09,322,15,07,13,289,,10,55,120,,1*6A
$GPGSV,4,3,13,13,02,005,,15,08,030,,16,41,185,,18,17,063,,1*6F
$GPGSV,4,4,13,26,10,171,,1*54
$GPGGA,144841.00,,,,,0,,,,,,,,*44
$GAGGA,144841.00,,,,,0,,,,,,,,*55
$GPVTG,,T,,M,,N,,K,N*2C
$GAVTG,,T,,M,,N,,K,N*3D
$GARMC,,V,,,,,,,,,,N,V*38
$GPGSA,A,1,,,,,,,,,,,,,,,,*32
$GAGSA,A,1,,,,,,,,,,,,,,,,*23
$GPRMC,,V,,,,,,,,,,N,V*29
$GPGSV,4,1,13,02,20,067,19,08,55,293,22,21,25,248,18,23,43,063,21,1*69
$GPGSV,4,2,13,27,85,102,19,30,09,322,15,07,13,289,,10,55,120,,1*6A
$GPGSV,4,3,13,13,02,005,,15,08,030,,16,41,185,,18,17,063,,1*6F
$GPGSV,4,4,13,26,10,171,,1*54
$GPGGA,144842.00,,,,,0,,,,,,,,*47
$GAGGA,144842.00,,,,,0,,,,,,,,*56
$GPVTG,,T,,M,,N,,K,N*2C
$GAVTG,,T,,M,,N,,K,N*3D
$GARMC,,V,,,,,,,,,,N,V*38
$GPGSA,A,1,,,,,,,,,,,,,,,,*32
$GAGSA,A,1,,,,,,,,,,,,,,,,*23
$GPRMC,,V,,,,,,,,,,N,V*29
$GPGSV,4,1,13,02,20,067,19,08,55,293,22,21,25,248,18,23,43,063,20,1*68
$GPGSV,4,2,13,27,85,102,19,30,09,322,15,07,13,289,,10,55,120,,1*6A
$GPGSV,4,3,13,13,02,005,,15,08,030,,16,41,185,,18,17,063,,1*6F
$GPGSV,4,4,13,26,10,171,,1*54
$GPGGA,144843.00,,,,,0,,,,,,,,*46
$GAGGA,144843.00,,,,,0,,,,,,,,*57
$GPVTG,,T,,M,,N,,K,N*2C
$GAVTG,,T,,M,,N,,K,N*3D
$GARMC,,V,,,,,,,,,,N,V*38
$GPGSA,A,1,,,,,,,,,,,,,,,,*32
$GAGSA,A,1,,,,,,,,,,,,,,,,*23
$GPRMC,,V,,,,,,,,,,N,V*29
$GPGSV,4,1,13,02,20,067,19,08,55,293,22,21,25,248,18,23,43,063,22,1*6A
$GPGSV,4,2,13,27,85,102,19,30,09,322,15,07,13,289,,10,55,120,,1*6A
$GPGSV,4,3,13,13,02,005,,15,08,030,,16,41,185,,18,17,063,,1*6F
$GPGSV,4,4,13,26,10,171,,1*54
$GPGGA,144844.00,,,,,0,,,,,,,,*41
$GAGGA,144844.00,,,,,0,,,,,,,,*50
$GPVTG,,T,,M,,N,,K,N*2C
$GAVTG,,T,,M,,N,,K,N*3D
$GARMC,,V,,,,,,,,,,N,V*38
$GPGSA,A,1,,,,,,,,,,,,,,,,*32
$GAGSA,A,1,,,,,,,,,,,,,,,,*23
$GPRMC,,V,,,,,,,,,,N,V*29
$GPGSV,4,1,13,02,20,067,18,08,55,293,21,21,25,248,16,23,43,063,22,1*66
$GPGSV,4,2,13,27,85,102,19,30,09,322,15,07,13,289,,10,55,120,,1*6A
$GPGSV,4,3,13,13,02,005,,15,08,030,,16,41,185,,18,17,063,,1*6F
$GPGSV,4,4,13,26,10,171,,1*54
$GPGGA,144845.00,,,,,0,,,,,,,,*40
$GAGGA,144845.00,,,,,0,,,,,,,,*51
$GPVTG,,T,,M,,N,,K,N*2C
$GAVTG,,T,,M,,N,,K,N*3D
$GARMC,,V,,,,,,,,,,N,V*38
$GPGSA,A,1,,,,,,,,,,,,,,,,*32
$GAGSA,A,1,,,,,,,,,,,,,,,,*23
$GPRMC,,V,,,,,,,,,,N,V*29
$GPGSV,4,1,13,02,20,067,18,08,55,293,21,21,25,248,16,23,43,063,20,1*64
$GPGSV,4,2,13,27,85,102,17,30,09,322,15,07,13,289,,10,55,120,,1*64
$GPGSV,4,3,13,13,02,005,,15,08,030,,16,41,185,,18,17,063,,1*6F
$GPGSV,4,4,13,26,10,171,,1*54
$GPGGA,144846.00,,,,,0,,,,,,,,*43
$GAGGA,144846.00,,,,,0,,,,,,,,*52
$GPVTG,,T,,M,,N,,K,N*2C
$GAVTG,,T,,M,,N,,K,N*3D
$GARMC,,V,,,,,,,,,,N,V*38
$GPGSA,A,1,,,,,,,,,,,,,,,,*32
$GAGSA,A,1,,,,,,,,,,,,,,,,*23
$GPRMC,,V,,,,,,,,,,N,V*29
$GPGSV,4,1,13,02,20,067,20,08,55,293,20,21,25,248,16,23,43,063,22,1*6C
$GPGSV,4,2,13,27,85,102,17,30,09,322,15,07,13,289,,10,55,120,,1*64
$GPGSV,4,3,13,13,02,005,,15,08,030,,16,41,185,,18,17,063,,1*6F
$GPGSV,4,4,13,26,10,171,,1*54
$GPGGA,144847.00,,,,,0,,,,,,,,*42
$GAGGA,144847.00,,,,,0,,,,,,,,*53
$GPVTG,,T,,M,,N,,K,N*2C
$GAVTG,,T,,M,,N,,K,N*3D
$GARMC,,V,,,,,,,,,,N,V*38
$GPGSA,A,1,,,,,,,,,,,,,,,,*32
$GAGSA,A,1,,,,,,,,,,,,,,,,*23
$GPRMC,,V,,,,,,,,,,N,V*29
$GPGSV,4,1,13,02,20,067,22,08,55,293,20,21,25,248,16,23,43,063,22,1*6E
$GPGSV,4,2,13,27,85,102,20,30,09,322,15,07,13,289,,10,55,120,,1*60
$GPGSV,4,3,13,13,02,005,,15,08,030,,16,41,185,,18,17,063,,1*6F
$GPGSV,4,4,13,26,10,171,,1*54
$GPGGA,144848.00,,,,,0,,,,,,,,*4D
$GAGGA,144848.00,,,,,0,,,,,,,,*5C
$GPVTG,,T,,M,,N,,K,N*2C
$GAVTG,,T,,M,,N,,K,N*3D
$GARMC,,V,,,,,,,,,,N,V*38
$GPGSA,A,1,,,,,,,,,,,,,,,,*32
$GAGSA,A,1,,,,,,,,,,,,,,,,*23
$GPRMC,,V,,,,,,,,,,N,V*29
$GPGSV,4,1,13,02,20,067,22,08,55,293,20,21,25,248,16,23,43,063,20,1*6C
$GPGSV,4,2,13,27,85,102,23,30,09,322,15,07,13,289,,10,55,120,,1*63
$GPGSV,4,3,13,13,02,005,,15,08,030,,16,41,185,,18,17,063,,1*6F
$GPGSV,4,4,13,26,10,171,,1*54
$GPGGA,144849.00,,,,,0,,,,,,,,*4C
$GAGGA,144849.00,,,,,0,,,,,,,,*5D
$GPVTG,,T,,M,,N,,K,N*2C
$GAVTG,,T,,M,,N,,K,N*3D
$GARMC,,V,,,,,,,,,,N,V*38
$GPGSA,A,1,,,,,,,,,,,,,,,,*32
$GAGSA,A,1,,,,,,,,,,,,,,,,*23
$GPRMC,,V,,,,,,,,,,N,V*29
$GPGSV,4,1,13,02,20,067,20,08,55,293,20,21,25,248,18,23,43,063,20,1*60
$GPGSV,4,2,13,27,85,104,23,30,09,322,15,07,12,289,,10,55,120,,1*64
$GPGSV,4,3,13,13,02,005,,15,08,030,,16,41,185,,18,17,063,,1*6F
$GPGSV,4,4,13,26,10,171,,1*54
$GPGGA,144850.00,,,,,0,,,,,,,,*44
$GAGGA,144850.00,,,,,0,,,,,,,,*55
$GPVTG,,T,,M,,N,,K,N*2C
$GAVTG,,T,,M,,N,,K,N*3D
$GARMC,,V,,,,,,,,,,N,V*38
$GPGSA,A,1,,,,,,,,,,,,,,,,*32
$GAGSA,A,1,,,,,,,,,,,,,,,,*23
$GPRMC,,V,,,,,,,,,,N,V*29
$GPGSV,4,1,13,02,20,067,20,08,55,293,20,21,25,248,18,23,43,063,20,1*60
$GPGSV,4,2,13,27,85,104,23,30,09,322,11,07,12,289,,10,56,120,,1*63
$GPGSV,4,3,13,13,02,005,,15,08,030,,16,41,185,,18,17,063,,1*6F
$GPGSV,4,4,13,26,10,171,,1*54
$GPGGA,144851.00,,,,,0,,,,,,,,*45
$GAGGA,144851.00,,,,,0,,,,,,,,*54
$GPVTG,,T,,M,,N,,K,N*2C
$GAVTG,,T,,M,,N,,K,N*3D
$GARMC,,V,,,,,,,,,,N,V*38
$GPGSA,A,1,,,,,,,,,,,,,,,,*32
$GAGSA,A,1,,,,,,,,,,,,,,,,*23
$GPRMC,,V,,,,,,,,,,N,V*29
$GPGSV,4,1,13,02,20,067,20,08,55,293,20,21,25,248,20,23,43,063,20,1*6B
$GPGSV,4,2,13,27,85,104,20,30,09,322,11,07,12,289,,10,56,120,,1*60
$GPGSV,4,3,13,13,02,005,,15,08,030,,16,41,185,,18,17,063,,1*6F
$GPGSV,4,4,13,26,10,171,,1*54
$GPGGA,144852.00,,,,,0,,,,,,,,*46
$GAGGA,144852.00,,,,,0,,,,,,,,*57
$GPVTG,,T,,M,,N,,K,N*2C
$GAVTG,,T,,M,,N,,K,N*3D
$GARMC,,V,,,,,,,,,,N,V*38
$GPGSA,A,1,,,,,,,,,,,,,,,,*32
$GAGSA,A,1,,,,,,,,,,,,,,,,*23
$GPRMC,,V,,,,,,,,,,N,V*29
$GPGSV,4,1,13,02,20,067,22,08,55,293,18,21,25,250,20,23,43,063,20,1*6B
$GPGSV,4,2,13,27,85,104,20,30,09,322,11,07,12,289,,10,56,120,,1*60
$GPGSV,4,3,13,13,02,004,,15,08,030,,16,41,185,,18,17,063,,1*6E
$GPGSV,4,4,13,26,10,171,,1*54
$GPGGA,144853.00,,,,,0,,,,,,,,*47
$GAGGA,144853.00,,,,,0,,,,,,,,*56
$GPVTG,,T,,M,,N,,K,N*2C
$GAVTG,,T,,M,,N,,K,N*3D
$GARMC,,V,,,,,,,,,,N,V*38
$GPGSA,A,1,,,,,,,,,,,,,,,,*32
$GAGSA,A,1,,,,,,,,,,,,,,,,*23
$GPRMC,,V,,,,,,,,,,N,V*29
$GPGSV,4,1,13,02,20,067,22,08,55,293,21,21,25,250,20,23,43,063,21,1*60
$GPGSV,4,2,13,27,85,104,20,30,09,322,11,07,12,289,,10,56,120,,1*60
$GPGSV,4,3,13,13,02,004,,15,08,030,,16,41,185,,18,17,063,,1*6E
$GPGSV,4,4,13,26,10,171,,1*54
$GPGGA,144854.00,,,,,0,,,,,,,,*40
$GAGGA,144854.00,,,,,0,,,,,,,,*51
$GPVTG,,T,,M,,N,,K,N*2C
$GAVTG,,T,,M,,N,,K,N*3D
$GARMC,,V,,,,,,,,,,N,V*38
$GPGSA,A,1,,,,,,,,,,,,,,,,*32
$GAGSA,A,1,,,,,,,,,,,,,,,,*23
$GPRMC,,V,,,,,,,,,,N,V*29
$GPGSV,4,1,13,02,20,067,22,08,55,293,21,21,25,250,20,23,43,063,22,1*63
$GPGSV,4,2,13,27,85,104,21,30,09,322,11,07,12,289,,10,56,120,,1*61
$GPGSV,4,3,13,13,02,004,,15,08,030,,16,41,185,,18,17,063,,1*6E
$GPGSV,4,4,13,26,10,171,,1*54
$GPGGA,144855.00,,,,,0,,,,,,,,*41
$GAGGA,144855.00,,,,,0,,,,,,,,*50
$GPVTG,,T,,M,,N,,K,N*2C
$GAVTG,,T,,M,,N,,K,N*3D
$GARMC,,V,,,,,,,,,,N,V*38
$GPGSA,A,1,,,,,,,,,,,,,,,,*32
$GAGSA,A,1,,,,,,,,,,,,,,,,*23
$GPRMC,,V,,,,,,,,,,N,V*29
$GPGSV,4,1,13,02,20,067,22,08,55,293,21,21,25,250,18,23,43,063,22,1*68
$GPGSV,4,2,13,27,85,104,22,30,09,322,11,07,12,289,,10,56,120,,1*62
$GPGSV,4,3,13,13,02,004,,15,08,030,,16,41,185,,18,17,063,,1*6E
$GPGSV,4,4,13,26,10,171,,1*54
$GPGGA,144856.00,,,,,0,,,,,,,,*42
$GAGGA,144856.00,,,,,0,,,,,,,,*53
$GPVTG,,T,,M,,N,,K,N*2C
$GAVTG,,T,,M,,N,,K,N*3D
$GARMC,,V,,,,,,,,,,N,V*38
$GPGSA,A,1,,,,,,,,,,,,,,,,*32
$GAGSA,A,1,,,,,,,,,,,,,,,,*23
$GPRMC,,V,,,,,,,,,,N,V*29
$GPGSV,4,1,13,02,20,067,22,08,55,293,21,21,25,250,18,23,43,063,22,1*68
$GPGSV,4,2,13,27,85,104,22,30,09,322,11,07,12,289,,10,56,120,,1*62
$GPGSV,4,3,13,13,02,004,,15,08,030,,16,41,185,,18,17,063,,1*6E
$GPGSV,4,4,13,26,10,171,,1*54
$GPGGA,144857.00,,,,,0,,,,,,,,*43
$GAGGA,144857.00,,,,,0,,,,,,,,*52
$GPVTG,,T,,M,,N,,K,N*2C
$GAVTG,,T,,M,,N,,K,N*3D
$GARMC,,V,,,,,,,,,,N,V*38
$GPGSA,A,1,,,,,,,,,,,,,,,,*32
$GAGSA,A,1,,,,,,,,,,,,,,,,*23
$GPRMC,,V,,,,,,,,,,N,V*29
$GPGSV,4,1,13,02,20,067,22,08,55,293,21,21,25,250,18,23,43,063,22,1*68
$GPGSV,4,2,13,27,85,104,22,30,09,322,11,07,12,289,,10,56,120,,1*62
$GPGSV,4,3,13,13,02,004,,15,08,030,,16,41,185,,18,17,063,,1*6E
$GPGSV,4,4,13,26,10,171,,1*54
$GPGGA,144858.00,,,,,0,,,,,,,,*4C
$GAGGA,144858.00,,,,,0,,,,,,,,*5D
$GPVTG,,T,,M,,N,,K,N*2C
$GAVTG,,T,,M,,N,,K,N*3D
$GARMC,,V,,,,,,,,,,N,V*38
$GPGSA,A,1,,,,,,,,,,,,,,,,*32
$GAGSA,A,1,,,,,,,,,,,,,,,,*23
$GPRMC,,V,,,,,,,,,,N,V*29
$GPGSV,4,1,13,02,20,067,22,08,55,293,21,21,25,250,18,23,43,063,22,1*68
$GPGSV,4,2,13,27,85,104,22,30,09,322,11,07,12,289,,10,56,120,,1*62
$GPGSV,4,3,13,13,02,004,,15,08,030,,16,41,185,,18,17,063,,1*6E
$GPGSV,4,4,13,26,10,171,,1*54
$GPGGA,144859.00,,,,,0,,,,,,,,*4D
$GAGGA,144859.00,,,,,0,,,,,,,,*5C
$GPVTG,,T,,M,,N,,K,N*2C
$GAVTG,,T,,M,,N,,K,N*3D
$GARMC,,V,,,,,,,,,,N,V*38
$GPGSA,A,1,,,,,,,,,,,,,,,,*32
$GAGSA,A,1,,,,,,,,,,,,,,,,*23
$GPRMC,,V,,,,,,,,,,N,V*29
$GPGSV,4,1,13,02,20,067,22,08,55,293,21,21,25,250,18,23,43,063,22,1*68
$GPGSV,4,2,13,27,85,104,22,30,09,322,11,07,12,289,,10,56,120,,1*62
$GPGSV,4,3,13,13,02,004,,15,08,030,,16,41,185,,18,17,063,,1*6E
$GPGSV,4,4,13,26,10,171,,1*54
$GPGGA,144900.00,,,,,0,,,,,,,,*40
$GAGGA,144900.00,,,,,0,,,,,,,,*51
$GPVTG,,T,,M,,N,,K,N*2C
$GAVTG,,T,,M,,N,,K,N*3D
$GARMC,,V,,,,,,,,,,N,V*38
$GPGSA,A,1,,,,,,,,,,,,,,,,*32
$GAGSA,A,1,,,,,,,,,,,,,,,,*23
$GPRMC,,V,,,,,,,,,,N,V*29
$GPGSV,4,1,13,02,20,067,22,08,55,293,21,21,25,250,18,23,43,063,22,1*68
$GPGSV,4,2,13,27,85,104,22,30,09,322,11,07,12,289,,10,56,120,,1*62
$GPGSV,4,3,13,13,02,004,,15,08,030,,16,41,185,,18,17,063,,1*6E
$GPGSV,4,4,13,26,10,171,,1*54
$GPGGA,144901.00,,,,,0,,,,,,,,*41
$GAGGA,144901.00,,,,,0,,,,,,,,*50
$GPVTG,,T,,M,,N,,K,N*2C
$GAVTG,,T,,M,,N,,K,N*3D
$GARMC,,V,,,,,,,,,,N,V*38
$GPGSA,A,1,,,,,,,,,,,,,,,,*32
$GAGSA,A,1,,,,,,,,,,,,,,,,*23
$GPRMC,,V,,,,,,,,,,N,V*29
$GPGSV,4,1,13,02,20,067,22,08,55,293,21,21,25,250,18,23,43,063,22,1*68
$GPGSV,4,2,13,27,85,104,18,30,09,322,11,07,12,289,,10,56,120,,1*6B
$GPGSV,4,3,13,13,02,004,,15,08,030,,16,41,185,,18,17,063,,1*6E
$GPGSV,4,4,13,26,10,171,,1*54
$GPGGA,144902.00,,,,,0,,,,,,,,*42
$GAGGA,144902.00,,,,,0,,,,,,,,*53
$GPVTG,,T,,M,,N,,K,N*2C
$GAVTG,,T,,M,,N,,K,N*3D
$GARMC,,V,,,,,,,,,,N,V*38
$GPGSA,A,1,,,,,,,,,,,,,,,,*32
$GAGSA,A,1,,,,,,,,,,,,,,,,*23
$GPRMC,,V,,,,,,,,,,N,V*29
$GPGSV,4,1,13,02,20,067,22,08,55,293,17,21,25,250,18,23,43,063,22,1*6D
$GPGSV,4,2,13,27,85,104,18,30,09,322,11,07,12,289,,10,56,120,,1*6B
$GPGSV,4,3,13,13,02,004,,15,08,030,,16,41,185,,18,17,063,,1*6E
$GPGSV,4,4,13,26,10,171,,1*54
$GPGGA,144903.00,,,,,0,,,,,,,,*43
$GAGGA,144903.00,,,,,0,,,,,,,,*52
$GPVTG,,T,,M,,N,,K,N*2C
$GAVTG,,T,,M,,N,,K,N*3D
$GARMC,,V,,,,,,,,,,N,V*38
$GPGSA,A,1,,,,,,,,,,,,,,,,*32
$GAGSA,A,1,,,,,,,,,,,,,,,,*23
$GPRMC,,V,,,,,,,,,,N,V*29
$GPGSV,4,1,13,02,20,067,22,08,55,293,17,21,25,250,18,23,43,063,17,1*6B
$GPGSV,4,2,13,27,85,104,20,30,09,322,11,07,12,289,,10,56,120,,1*60
$GPGSV,4,3,13,13,02,004,,15,08,030,,16,41,185,,18,17,063,,1*6E
$GPGSV,4,4,13,26,10,171,,1*54
$GPGGA,144904.00,,,,,0,,,,,,,,*44
$GAGGA,144904.00,,,,,0,,,,,,,,*55
$GPVTG,,T,,M,,N,,K,N*2C
$GAVTG,,T,,M,,N,,K,N*3D
$GARMC,,V,,,,,,,,,,N,V*38
$GPGSA,A,1,,,,,,,,,,,,,,,,*32
$GAGSA,A,1,,,,,,,,,,,,,,,,*23
$GPRMC,,V,,,,,,,,,,N,V*29
$GPGSV,4,1,13,02,20,067,22,08,55,293,17,21,25,250,18,23,43,063,22,1*6D
$GPGSV,4,2,13,27,85,104,20,30,09,322,11,07,12,289,,10,56,120,,1*60
$GPGSV,4,3,13,13,02,004,,15,08,030,,16,41,185,,18,17,063,,1*6E
$GPGSV,4,4,13,26,10,171,,1*54
$GPGGA,144905.00,,,,,0,,,,,,,,*45
$GAGGA,144905.00,,,,,0,,,,,,,,*54
$GPVTG,,T,,M,,N,,K,N*2C
$GAVTG,,T,,M,,N,,K,N*3D
$GARMC,,V,,,,,,,,,,N,V*38
$GPGSA,A,1,,,,,,,,,,,,,,,,*32
$GAGSA,A,1,,,,,,,,,,,,,,,,*23
$GPRMC,,V,,,,,,,,,,N,V*29
$GPGSV,4,1,13,02,20,067,22,08,55,293,19,21,25,250,18,23,43,063,22,1*63
$GPGSV,4,2,13,27,85,104,20,30,09,322,11,07,12,289,,10,56,120,,1*60
$GPGSV,4,3,13,13,02,004,,15,08,030,,16,41,185,,18,17,063,,1*6E
$GPGSV,4,4,13,26,10,171,,1*54
$GPGGA,144906.00,,,,,0,,,,,,,,*46
$GAGGA,144906.00,,,,,0,,,,,,,,*57
$GPVTG,,T,,M,,N,,K,N*2C
$GAVTG,,T,,M,,N,,K,N*3D
$GARMC,,V,,,,,,,,,,N,V*38
$GPGSA,A,1,,,,,,,,,,,,,,,,*32
$GAGSA,A,1,,,,,,,,,,,,,,,,*23
$GPRMC,,V,,,,,,,,,,N,V*29
$GPGSV,4,1,13,02,20,067,15,08,55,293,19,21,25,250,18,23,43,063,21,1*64
$GPGSV,4,2,13,27,85,104,20,30,09,322,11,07,12,289,,10,56,120,,1*60
$GPGSV,4,3,13,13,02,004,,15,08,030,,16,41,185,,18,17,063,,1*6E
$GPGSV,4,4,13,26,10,171,,1*54
$GPGGA,144907.00,,,,,0,,,,,,,,*47
$GAGGA,144907.00,,,,,0,,,,,,,,*56
$GPVTG,,T,,M,,N,,K,N*2C
$GAVTG,,T,,M,,N,,K,N*3D
$GARMC,,V,,,,,,,,,,N,V*38
$GPGSA,A,1,,,,,,,,,,,,,,,,*32
$GAGSA,A,1,,,,,,,,,,,,,,,,*23
$GPRMC,,V,,,,,,,,,,N,V*29
$GPGSV,4,1,13,02,20,067,15,08,55,293,19,21,25,250,18,23,43,063,23,1*66
$GPGSV,4,2,13,27,85,104,18,30,09,322,11,07,12,289,,10,56,120,,1*6B
$GPGSV,4,3,13,13,02,004,,15,08,030,,16,41,185,,18,17,063,,1*6E
$GPGSV,4,4,13,26,10,171,,1*54
$GPGGA,144908.00,,,,,0,,,,,,,,*48
$GAGGA,144908.00,,,,,0,,,,,,,,*59
$GPVTG,,T,,M,,N,,K,N*2C
$GAVTG,,T,,M,,N,,K,N*3D
$GARMC,,V,,,,,,,,,,N,V*38
$GPGSA,A,1,,,,,,,,,,,,,,,,*32
$GAGSA,A,1,,,,,,,,,,,,,,,,*23
$GPRMC,,V,,,,,,,,,,N,V*29
$GPGSV,4,1,13,02,20,067,15,08,55,293,18,21,25,250,18,23,43,063,23,1*67
$GPGSV,4,2,13,27,85,104,18,30,09,322,11,07,12,289,,10,56,120,,1*6B
$GPGSV,4,3,13,13,02,004,,15,08,030,,16,41,185,,18,17,063,,1*6E
$GPGSV,4,4,13,26,10,171,,1*54
$GPGGA,144909.00,,,,,0,,,,,,,,*49
$GAGGA,144909.00,,,,,0,,,,,,,,*58
$GPVTG,,T,,M,,N,,K,N*2C
$GAVTG,,T,,M,,N,,K,N*3D
$GARMC,,V,,,,,,,,,,N,V*38
$GPGSA,A,1,,,,,,,,,,,,,,,,*32
$GAGSA,A,1,,,,,,,,,,,,,,,,*23
$GPRMC,144909.00,A,5101.578348,N,00342.812271,E,0.0,,210423,,,A,V*07
$GPGGA,144909.00,5101.578348,N,00342.812271,E,1,04,4.3,-18.2,M,47.0,M,,*71
$GAGGA,144909.00,5101.578348,N,00342.812271,E,1,00,4.3,-18.2,M,47.0,M,,*64
$GPVTG,,T,0.0,M,0.0,N,0.0,K,A*0D
$GAVTG,,T,0.0,M,0.0,N,0.0,K,A*1C
$GARMC,144909.00,A,5101.578348,N,00342.812271,E,0.0,,210423,,,A,V*16
$GPGSA,A,3,02,08,23,27,,,,,,,,,4.4,4.3,1.0,1*27
$GAGSA,A,3,,,,,,,,,,,,,4.4,4.3,1.0,3*3A
$GPRMC,,V,,,,,,,,,,N,V*29
$GPGSV,4,1,13,02,20,067,15,08,55,293,18,21,25,250,18,23,43,063,20,1*64
$GPGSV,4,2,13,27,85,104,20,30,09,322,11,07,12,289,,10,56,120,,1*60
$GPGSV,4,3,13,13,02,004,,15,08,030,,16,41,185,,18,17,063,,1*6E
$GPGSV,4,4,13,26,10,171,,1*54
$GPGGA,144910.00,,,,,0,,,,,,,,*41
$GAGGA,144910.00,,,,,0,,,,,,,,*50
$GPVTG,,T,,M,,N,,K,N*2C
$GAVTG,,T,,M,,N,,K,N*3D
$GARMC,,V,,,,,,,,,,N,V*38
$GPGSA,A,1,,,,,,,,,,,,,,,,*32
$GAGSA,A,1,,,,,,,,,,,,,,,,*23
$GPRMC,,V,,,,,,,,,,N,V*29
$GPGSV,4,1,13,02,20,067,15,08,55,293,18,21,25,250,18,23,43,063,20,1*64
$GPGSV,4,2,13,27,85,104,20,07,12,289,,10,56,120,,13,02,004,,1*6D
$GPGSV,4,3,13,15,08,030,,16,41,185,,18,17,063,,26,10,171,,1*68
$GPGSV,4,4,13,30,09,322,,1*5F
$GPGGA,144911.00,,,,,0,,,,,,,,*40
$GAGGA,144911.00,,,,,0,,,,,,,,*51
$GPVTG,,T,,M,,N,,K,N*2C
$GAVTG,,T,,M,,N,,K,N*3D
$GARMC,,V,,,,,,,,,,N,V*38
$GPGSA,A,1,,,,,,,,,,,,,,,,*32
$GAGSA,A,1,,,,,,,,,,,,,,,,*23
$GPRMC,,V,,,,,,,,,,N,V*29
$GPGSV,4,1,13,02,20,067,15,08,55,293,20,21,25,250,18,23,43,063,20,1*6F
$GPGSV,4,2,13,27,85,104,20,07,12,289,,10,56,120,,13,02,004,,1*6D
$GPGSV,4,3,13,15,08,030,,16,41,185,,18,17,063,,26,10,171,,1*68
$GPGSV,4,4,13,30,09,322,,1*5F
$GPGGA,144912.00,,,,,0,,,,,,,,*43
$GAGGA,144912.00,,,,,0,,,,,,,,*52
$GPVTG,,T,,M,,N,,K,N*2C
$GAVTG,,T,,M,,N,,K,N*3D
$GARMC,,V,,,,,,,,,,N,V*38
$GPGSA,A,1,,,,,,,,,,,,,,,,*32
$GAGSA,A,1,,,,,,,,,,,,,,,,*23
$GPRMC,,V,,,,,,,,,,N,V*29
$GPGSV,4,1,13,02,20,067,15,08,55,293,21,21,25,250,18,23,43,063,20,1*6E
$GPGSV,4,2,13,27,85,104,20,07,12,289,,10,56,120,,13,02,004,,1*6D
$GPGSV,4,3,13,15,08,030,,16,41,185,,18,17,063,,26,10,171,,1*68
$GPGSV,4,4,13,30,09,322,,1*5F
$GPGGA,144913.00,,,,,0,,,,,,,,*42
$GAGGA,144913.00,,,,,0,,,,,,,,*53
$GPVTG,,T,,M,,N,,K,N*2C
$GAVTG,,T,,M,,N,,K,N*3D
$GARMC,,V,,,,,,,,,,N,V*38
$GPGSA,A,1,,,,,,,,,,,,,,,,*32
$GAGSA,A,1,,,,,,,,,,,,,,,,*23
$GPRMC,,V,,,,,,,,,,N,V*29
$GPGSV,4,1,13,02,20,067,15,08,55,293,21,21,25,250,18,23,43,063,20,1*6E
$GPGSV,4,2,13,27,85,104,19,07,12,289,,10,56,120,,13,02,004,,1*67
$GPGSV,4,3,13,15,08,030,,16,41,185,,18,17,063,,26,10,171,,1*68
$GPGSV,4,4,13,30,09,322,,1*5F
$GPGGA,144914.00,,,,,0,,,,,,,,*45
$GAGGA,144914.00,,,,,0,,,,,,,,*54
$GPVTG,,T,,M,,N,,K,N*2C
$GAVTG,,T,,M,,N,,K,N*3D
$GARMC,,V,,,,,,,,,,N,V*38
$GPGSA,A,1,,,,,,,,,,,,,,,,*32
$GAGSA,A,1,,,,,,,,,,,,,,,,*23
$GPRMC,,V,,,,,,,,,,N,V*29
$GPGSV,4,1,13,02,20,067,15,08,55,293,21,21,25,250,18,23,43,063,19,1*64
$GPGSV,4,2,13,27,85,104,21,07,12,289,,10,56,120,,13,02,004,,1*6C
$GPGSV,4,3,13,15,08,030,,16,41,185,,18,17,063,,26,10,171,,1*68
$GPGSV,4,4,13,30,09,322,,1*5F
$GPGGA,144915.00,,,,,0,,,,,,,,*44
$GAGGA,144915.00,,,,,0,,,,,,,,*55
$GPVTG,,T,,M,,N,,K,N*2C
$GAVTG,,T,,M,,N,,K,N*3D
$GARMC,,V,,,,,,,,,,N,V*38
$GPGSA,A,1,,,,,,,,,,,,,,,,*32
$GAGSA,A,1,,,,,,,,,,,,,,,,*23
$GPRMC,,V,,,,,,,,,,N,V*29
$GPGSV,4,1,13,02,20,067,15,08,55,293,21,21,25,250,18,23,43,063,19,1*64
$GPGSV,4,2,13,27,85,104,21,07,12,289,,10,56,120,,13,02,004,,1*6C
$GPGSV,4,3,13,15,08,030,,16,41,185,,18,17,063,,26,10,171,,1*68
$GPGSV,4,4,13,30,09,322,,1*5F
$GPGGA,144916.00,,,,,0,,,,,,,,*47
$GAGGA,144916.00,,,,,0,,,,,,,,*56
$GPVTG,,T,,M,,N,,K,N*2C
$GAVTG,,T,,M,,N,,K,N*3D
$GARMC,,V,,,,,,,,,,N,V*38
$GPGSA,A,1,,,,,,,,,,,,,,,,*32
$GAGSA,A,1,,,,,,,,,,,,,,,,*23
$GPRMC,,V,,,,,,,,,,N,V*29
$GPGSV,4,1,13,02,20,067,15,08,55,293,21,21,25,250,18,23,43,063,19,1*64
$GPGSV,4,2,13,27,85,104,20,07,12,289,,10,56,120,,13,02,004,,1*6D
$GPGSV,4,3,13,15,08,030,,16,41,185,,18,17,063,,26,10,171,,1*68
$GPGSV,4,4,13,30,09,322,,1*5F
$GPGGA,144917.00,,,,,0,,,,,,,,*46
$GAGGA,144917.00,,,,,0,,,,,,,,*57
$GPVTG,,T,,M,,N,,K,N*2C
$GAVTG,,T,,M,,N,,K,N*3D
$GARMC,,V,,,,,,,,,,N,V*38
$GPGSA,A,1,,,,,,,,,,,,,,,,*32
$GAGSA,A,1,,,,,,,,,,,,,,,,*23
$GPRMC,,V,,,,,,,,,,N,V*29
$GPGSV,4,1,13,02,20,067,15,08,55,293,21,21,25,250,18,23,43,063,19,1*64
$GPGSV,4,2,13,27,85,104,20,07,12,289,,10,56,120,,13,02,004,,1*6D
$GPGSV,4,3,13,15,08,030,,16,41,185,,18,17,063,,26,10,171,,1*68
$GPGSV,4,4,13,30,09,322,,1*5F
$GPGGA,144918.00,,,,,0,,,,,,,,*49
$GAGGA,144918.00,,,,,0,,,,,,,,*58
$GPVTG,,T,,M,,N,,K,N*2C
$GAVTG,,T,,M,,N,,K,N*3D
$GARMC,,V,,,,,,,,,,N,V*38
$GPGSA,A,1,,,,,,,,,,,,,,,,*32
$GAGSA,A,1,,,,,,,,,,,,,,,,*23
$GPRMC,,V,,,,,,,,,,N,V*29
$GPGSV,3,1,12,02,20,067,15,08,55,293,22,23,43,063,19,27,85,104,20,1*64
$GPGSV,3,2,12,07,12,289,,10,56,120,,13,02,004,,15,08,030,,1*6B
$GPGSV,3,3,12,16,41,185,,18,17,063,,26,10,171,,30,09,322,,1*68
$GPGGA,144919.00,,,,,0,,,,,,,,*48
$GAGGA,144919.00,,,,,0,,,,,,,,*59
$GPVTG,,T,,M,,N,,K,N*2C
$GAVTG,,T,,M,,N,,K,N*3D
$GARMC,,V,,,,,,,,,,N,V*38
$GPGSA,A,1,,,,,,,,,,,,,,,,*32
$GAGSA,A,1,,,,,,,,,,,,,,,,*23
$GPRMC,,V,,,,,,,,,,N,V*29
$GPGSV,4,1,13,02,20,067,15,08,55,293,21,23,43,063,20,27,85,104,19,1*61
$GPGSV,4,2,13,07,12,289,,10,56,120,,13,02,004,,15,08,030,,1*6D
$GPGSV,4,3,13,16,41,185,,18,17,063,,21,25,250,,26,10,171,,1*64
$GPGSV,4,4,13,30,09,322,,1*5F
$GPGGA,144920.00,,,,,0,,,,,,,,*42
$GAGGA,144920.00,,,,,0,,,,,,,,*53
$GPVTG,,T,,M,,N,,K,N*2C
$GAVTG,,T,,M,,N,,K,N*3D
$GARMC,,V,,,,,,,,,,N,V*38
$GPGSA,A,1,,,,,,,,,,,,,,,,*32
$GAGSA,A,1,,,,,,,,,,,,,,,,*23
$GPRMC,,V,,,,,,,,,,N,V*29
$GPGSV,4,1,13,02,20,067,15,08,56,293,21,23,43,063,21,27,85,105,21,1*69
$GPGSV,4,2,13,07,12,289,,10,56,120,,13,02,004,,15,08,030,,1*6D
$GPGSV,4,3,13,16,41,185,,18,17,063,,21,25,250,,26,09,171,,1*6C
$GPGSV,4,4,13,30,09,322,,1*5F
$GPGGA,144921.00,,,,,0,,,,,,,,*43
$GAGGA,144921.00,,,,,0,,,,,,,,*52
$GPVTG,,T,,M,,N,,K,N*2C
$GAVTG,,T,,M,,N,,K,N*3D
$GARMC,,V,,,,,,,,,,N,V*38
$GPGSA,A,1,,,,,,,,,,,,,,,,*32
$GAGSA,A,1,,,,,,,,,,,,,,,,*23
$GPRMC,,V,,,,,,,,,,N,V*29
$GPGSV,4,1,13,02,20,067,17,08,56,293,21,23,43,063,22,27,85,105,21,1*68
$GPGSV,4,2,13,07,12,289,,10,56,120,,13,02,004,,15,08,030,,1*6D
$GPGSV,4,3,13,16,41,185,,18,17,063,,21,25,250,,26,09,171,,1*6C
$GPGSV,4,4,13,30,09,322,,1*5F
$GPGGA,144922.00,,,,,0,,,,,,,,*40
$GAGGA,144922.00,,,,,0,,,,,,,,*51
$GPVTG,,T,,M,,N,,K,N*2C
$GAVTG,,T,,M,,N,,K,N*3D
$GARMC,,V,,,,,,,,,,N,V*38
$GPGSA,A,1,,,,,,,,,,,,,,,,*32
$GAGSA,A,1,,,,,,,,,,,,,,,,*23
$GPRMC,,V,,,,,,,,,,N,V*29
$GPGSV,4,1,13,02,20,067,17,08,56,293,21,23,43,063,21,27,85,105,21,1*6B
$GPGSV,4,2,13,07,12,289,,10,56,120,,13,02,004,,15,08,030,,1*6D
$GPGSV,4,3,13,16,41,185,,18,17,063,,21,25,250,,26,09,171,,1*6C
$GPGSV,4,4,13,30,09,322,,1*5F
$GPGGA,144923.00,,,,,0,,,,,,,,*41
$GAGGA,144923.00,,,,,0,,,,,,,,*50
$GPVTG,,T,,M,,N,,K,N*2C
$GAVTG,,T,,M,,N,,K,N*3D
$GARMC,,V,,,,,,,,,,N,V*38
$GPGSA,A,1,,,,,,,,,,,,,,,,*32
$GAGSA,A,1,,,,,,,,,,,,,,,,*23
$GPRMC,,V,,,,,,,,,,N,V*29
$GPGSV,4,1,13,02,20,067,17,08,56,293,21,23,43,063,21,27,85,105,19,1*60
$GPGSV,4,2,13,07,12,289,,10,56,120,,13,02,004,,15,08,030,,1*6D
$GPGSV,4,3,13,16,41,185,,18,17,063,,21,25,250,,26,09,171,,1*6C
$GPGSV,4,4,13,30,09,322,,1*5F
$GPGGA,144924.00,,,,,0,,,,,,,,*46
$GAGGA,144924.00,,,,,0,,,,,,,,*57
$GPVTG,,T,,M,,N,,K,N*2C
$GAVTG,,T,,M,,N,,K,N*3D
$GARMC,,V,,,,,,,,,,N,V*38
$GPGSA,A,1,,,,,,,,,,,,,,,,*32
$GAGSA,A,1,,,,,,,,,,,,,,,,*23
$GPRMC,,V,,,,,,,,,,N,V*29
$GPGSV,4,1,13,02,20,067,19,08,56,293,21,23,43,063,20,27,85,105,19,1*6F
$GPGSV,4,2,13,07,12,289,,10,56,120,,13,02,004,,15,08,030,,1*6D
$GPGSV,4,3,13,16,41,185,,18,17,063,,21,25,250,,26,09,171,,1*6C
$GPGSV,4,4,13,30,09,322,,1*5F
$GPGGA,144925.00,,,,,0,,,,,,,,*47
$GAGGA,144925.00,,,,,0,,,,,,,,*56
$GPVTG,,T,,M,,N,,K,N*2C
$GAVTG,,T,,M,,N,,K,N*3D
$GARMC,,V,,,,,,,,,,N,V*38
